,관리기관명,소재지도로명주소,소재지지번주소,카메라대수,설치연월,위도,경도
364,경기도지사,경기도 수원시 권선구 권광로 129,경기도 수원시 권선구 권선동 1015-6,9,2000-01,37.259429,127.03038
6247,경기도혈액원,경기도 수원시 권선구 권광로 129,경기도 수원시 권선구 권선동 1015-6번지,6,2012-10,37.259429,127.03038
6249,경기도혈액원,경기도 수원시 팔달구 덕영대로 923-1 새수원빌딩 4층,경기도 수원시 팔달구 매산로1가 57-104 새수원빌딩 4층,2,2015-11,37.266146,127.001686
7787,경기도 수원시,경기도 수원시 팔달구 창룡대로103번길 41,경기도 수원시 팔달구 매향동 121-136,4,2017-05,37.2866498,127.0227291
7788,경기도 수원시,경기도 수원시 장안구 연무로13번길 13,경기도 수원시 장안구 연무동 239-22,1,2017-05,37.2932893,127.0283584
7790,경기도 수원시,경기도 수원시 장안구 창훈로52번길 3,경기도 수원시 장안구 연무동 56-118,1,2012-09,37.2970642,127.0301981
7791,경기도 수원시,경기도 수원시 팔달구 수원천로213번길 4,경기도 수원시 팔달구 구천동 46-35,7,2018-12,37.2729909,127.0180577
7797,경기도 수원시,경기도 수원시 권선구 구운중로11번길 49,경기도 수원시 권선구 구운동 538,4,2017-05,37.2756815,126.9704207
7798,경기도 수원시,,경기도 수원시 권선구 구운동 503-3,5,2017-05,37.2776563,126.976565
7799,경기도 수원시,경기도 수원시 권선구 세화로169번길 26-1,경기도 수원시 권선구 서둔동 45-37,4,2017-05,37.2668734,126.9915855
7800,경기도 수원시,경기도 수원시 권선구 서둔로7번길 19,경기도 수원시 권선구 고색동 890-174,1,2012-09,37.2520684,126.9830664
7801,경기도 수원시,경기도 수원시 권선구 칠보로125번길 28,경기도 수원시 권선구 호매실동 464-1,1,2017-05,37.2667367,126.9515973
7807,경기도 수원시,,경기도 수원시 권선구 입북동 222-17,4,2017-05,37.2951506,126.9633185
7809,경기도 수원시,경기도 수원시 장안구 덕영대로535번길 67,경기도 수원시 장안구 천천동 514,1,2012-02,37.2983993,126.983449
7810,경기도 수원시,경기도 수원시 장안구 서부로 2066,경기도 수원시 장안구 천천동 500,1,2012-02,37.299119,126.9779561
7812,경기도 수원시,,경기도 수원시 팔달구 지동 125-20,3,2016-06,37.2792068,127.0256137
7813,경기도 수원시,경기도 수원시 팔달구 중부대로87번길 15,경기도 수원시 팔달구 지동 115-8,4,2016-06,37.2771524,127.0258386
7814,경기도 수원시,경기도 수원시 팔달구 세지로331번길 38,경기도 수원시 팔달구 지동 297-21,4,2016-06,37.2815411,127.0221752
7815,경기도 수원시,경기도 수원시 팔달구 세지로377번길 14-1,경기도 수원시 팔달구 지동 231-3,4,2016-06,37.2843786,127.0262016
7816,경기도 수원시,경기도 수원시 팔달구 중부대로39번길 47,경기도 수원시 팔달구 지동 350-20,4,2016-06,37.2771532,127.0214976
7817,경기도 수원시,경기도 수원시 팔달구 팔달문로82번길 38-3,경기도 수원시 팔달구 지동 178-6,4,2016-06,37.2796841,127.0270571
7819,경기도 수원시,,경기도 수원시 권선구 당수동 292-1,1,2012-02,37.2924801,126.9357573
7820,경기도 수원시,경기도 수원시 영통구 영통로153번길 74-5,경기도 수원시 영통구 망포동 254,5,2012-02,37.2416895,127.0507009
7822,경기도 수원시,경기도 수원시 영통구 신원로250번길 58,경기도 수원시 영통구 영통동 76-1,4,2012-02,37.2571544,127.0633922
7823,경기도 수원시,경기도 수원시 영통구 영통로174번길 62,경기도 수원시 영통구 망포동 355-1,4,2012-02,37.2430735,127.0589179
7824,경기도 수원시,경기도 수원시 영통구 신원로 97,경기도 수원시 영통구 신동 398-8,4,2012-02,37.2476897,127.052339
7829,경기도 수원시,경기도 수원시 장안구 만석로 29,경기도 수원시 장안구 천천동 529,1,2012-02,37.2974261,126.9833364
7830,경기도 수원시,경기도 수원시 장안구 덕영대로417번길 1,경기도 수원시 장안구 율전동 192-13,1,2012-02,37.3012071,126.9686169197
7831,경기도 수원시,,경기도 수원시 장안구 율전동 119-1,1,2012-02,37.3060102,126.9711183
7832,경기도 수원시,경기도 수원시 장안구 서부로2106번길 26-130,경기도 수원시 장안구 율전동 439-8,1,2012-02,37.2971538,126.9734567
7833,경기도 수원시,경기도 수원시 장안구 서부로2197번길 35-2,경기도 수원시 장안구 율전동 105-8,1,2012-02,37.3040909,126.9704762
7834,경기도 수원시,경기도 수원시 장안구 수일로 20-7,경기도 수원시 장안구 파장동 201-4,1,2012-02,37.3113122,126.994399
7835,경기도 수원시,경기도 수원시 장안구 장안로 447,경기도 수원시 장안구 이목동 203-1,1,2012-02,37.3184013,126.979642
7838,경기도 수원시,경기도 수원시 팔달구 경수대로443번길 18,경기도 수원시 팔달구 인계동 992-12,1,2012-09,37.266151,127.0250348
7839,경기도 수원시,경기도 수원시 권선구 동수원로146번길 187,경기도 수원시 권선구 곡반정동 521-9,5,2017-05,37.242407,127.0332777
7840,경기도 수원시,경기도 수원시 영통구 영통로130번길 59,경기도 수원시 영통구 망포동 415,4,2017-05,37.2403523,127.0590511
7841,경기도 수원시,경기도 수원시 영통구 청명로59번길 59-2,경기도 수원시 영통구 영통동 1027-24,4,2017-05,37.2501259,127.0796962
7842,경기도 수원시,경기도 수원시 영통구 매영로415번길 7,경기도 수원시 영통구 영통동 1015-7,5,2017-05,37.2490195,127.0767533
7843,경기도 수원시,경기도 수원시 영통구 덕영대로1673번길 8-6,경기도 수원시 영통구 영통동 991-3,4,2017-05,37.2477684,127.0745768
7844,경기도 수원시,경기도 수원시 영통구 청명남로4번길 21-1,경기도 수원시 영통구 영통동 1002-8,4,2017-05,37.2498769,127.0743871
7846,경기도 수원시,경기도 수원시 장안구 장안로42번길 38,경기도 수원시 장안구 영화동 420-1,5,2017-05,37.2892103,127.0067838
7847,경기도 수원시,경기도 수원시 장안구 수성로402번길 30-4,경기도 수원시 장안구 영화동 212-13,4,2017-05,37.2933724,127.0157273
7848,경기도 수원시,경기도 수원시 팔달구 정조로886번길 7,경기도 수원시 팔달구 북수동 109-3,5,2012-09,37.2870382,127.0156135
7850,경기도 수원시,,경기도 수원시 권선구 탑동 508-6,1,2011-03,37.2652403,126.9771781
7851,경기도 수원시,경기도 수원시 권선구 곡반정로19번길 41,경기도 수원시 권선구 곡반정동 604-4,5,2017-01,37.2337951,127.0246422
7852,경기도 수원시,경기도 수원시 권선구 곡반정로19번길 15-5,경기도 수원시 권선구 곡반정동 608-1,4,2017-01,37.2326869,127.0238643
7853,경기도 수원시,,경기도 수원시 권선구 탑동 721-22,1,2011-03,37.2661502,126.9765126
7854,경기도 수원시,경기도 수원시 권선구 효탑로 24-21,경기도 수원시 권선구 탑동 869-8,1,2011-03,37.2669069,126.9758134
7857,경기도 수원시,경기도 수원시 권선구 서호동로14번길 52-3,경기도 수원시 권선구 서둔동 27-48,1,2011-03,37.2656298,126.9895114
7859,경기도 수원시,경기도 수원시 장안구 광교산로138번길 45,경기도 수원시 장안구 연무동 61-251,1,2011-03,37.2983434,127.0310332
7864,경기도 수원시,,경기도 수원시 영통구 매탄동 1185,1,2011-03,37.2573803,127.039833
7865,경기도 수원시,경기도 수원시 장안구 송정로 41,경기도 수원시 장안구 송죽동 409-22,1,2011-03,37.2974007,127.0012014
7869,경기도 수원시,경기도 수원시 영통구 영통로89번길 72,경기도 수원시 영통구 망포동 599-4,4,2012-02,37.2354071,127.055723
7871,경기도 수원시,,경기도 수원시 장안구 조원동 550-12,1,2012-02,37.2981207,127.0170026
7874,경기도 수원시,경기도 수원시 장안구 덕영대로395번길 12,경기도 수원시 장안구 율전동 182-2,1,2012-02,37.301819,126.9660332
7875,경기도 수원시,경기도 수원시 장안구 화산로233번길 38,경기도 수원시 장안구 율전동 402-5,1,2012-02,37.2980089,126.9703435
7876,경기도 수원시,경기도 수원시 팔달구 팔달문로 65,경기도 수원시 팔달구 지동 280-16,5,2017-09,37.2797658,127.0236744
7877,경기도 수원시,경기도 수원시 팔달구 신풍로 25,경기도 수원시 팔달구 신풍동 221-14,5,2017-01,37.2831549,127.0149814
7878,경기도 수원시,경기도 수원시 팔달구 수원천로 127,경기도 수원시 팔달구 매교동 113-17,3,2018-12,37.2661256,127.0139753
7879,경기도 수원시,경기도 수원시 팔달구 고화로72번길 9-20,경기도 수원시 팔달구 고등동 14-5,4,2012-02,37.2764067,127.0071101
7880,경기도 수원시,경기도 수원시 장안구 덕영대로417번길 98,경기도 수원시 장안구 율전동 142-22,1,2011-03,37.304451,126.9693932
7885,경기도 수원시,경기도 수원시 팔달구 장다리로245번길 7,경기도 수원시 팔달구 인계동 968-1,5,2017-06,37.2716291,127.0261977
7886,경기도 수원시,경기도 수원시 팔달구 세지로234번길 23,경기도 수원시 팔달구 인계동 822-20,4,2018-06,37.2720437,127.0252508
7887,경기도 수원시,,경기도 수원시 팔달구 우만동 26-3,3,2018-06,37.2828167,127.0387741
7888,경기도 수원시,,경기도 수원시 권선구 세류동 63,4,2017-06,37.2673242,127.0098379
7889,경기도 수원시,,경기도 수원시 권선구 세류동 63,1,2011-03,37.2659637,127.0096123
7891,경기도 수원시,,경기도 수원시 권선구 금곡동 1004,1,2011-03,37.2796489,126.9527838
7892,경기도 수원시,경기도 수원시 권선구 서수원로 607,경기도 수원시 권선구 금곡동 1006,1,2011-03,37.2795141,126.9534829
7893,경기도 수원시,경기도 수원시 권선구 여기산로 24,경기도 수원시 권선구 서둔동 260-99,4,2017-08,37.2795669,126.9787067
7897,경기도 수원시,경기도 수원시 권선구 당진로14번길 3,경기도 수원시 권선구 당수동 232-7,1,2011-03,37.2904014,126.940676
7898,경기도 수원시,경기도 수원시 권선구 당진로14번길 23,경기도 수원시 권선구 당수동 219-1,1,2011-03,37.2903209,126.9417926
7899,경기도 수원시,,경기도 수원시 권선구 서둔동 387,1,2017-05,37.2673783,126.9956779
7901,경기도 수원시,경기도 수원시 권선구 탑동로58번길 6-2,경기도 수원시 권선구 탑동 766-1,1,2011-03,37.2738984,126.9740633
7902,경기도 수원시,경기도 수원시 권선구 매실로 70,경기도 수원시 권선구 호매실동 377-1,1,2011-03,37.2677392,126.9573125
7903,경기도 수원시,경기도 수원시 권선구 매실로42번길 7,경기도 수원시 권선구 호매실동 388-1,4,2011-03,37.2669546,126.9556445
7905,경기도 수원시,경기도 수원시 영통구 동수원로 290,경기도 수원시 영통구 매탄동 1181-7,4,2011-03,37.2551558,127.0363939
7906,경기도 수원시,경기도 수원시 권선구 매송고색로 687,경기도 수원시 권선구 고색동 386-10,1,2011-03,37.250599,126.9795388
7907,경기도 수원시,경기도 수원시 권선구 매송고색로 681,경기도 수원시 권선구 고색동 389-5,1,2011-03,37.2501842,126.9779271
7908,경기도 수원시,,경기도 수원시 권선구 고색동 282-31,1,2011-03,37.2488793,126.9873164
7909,경기도 수원시,경기도 수원시 권선구 금호로 56,경기도 수원시 권선구 호매실동 82-10,1,2011-03,37.2695144,126.9578188
7911,경기도 수원시,경기도 수원시 영통구 매탄로196번길 28,경기도 수원시 영통구 매탄동 207-55,1,2016-07,37.2668476,127.0473009
7912,경기도 수원시,경기도 수원시 영통구 매탄로196번길 18,경기도 수원시 영통구 매탄동 207-50,2,2016-07,37.2670731,127.0466133
7913,경기도 수원시,경기도 수원시 영통구 매탄로196번길 23-16,경기도 수원시 영통구 매탄동 207-21,1,2016-07,37.2676584,127.0475043
7914,경기도 수원시,경기도 수원시 영통구 매탄로196번길 7-20,경기도 수원시 영통구 매탄동 207-22,1,2016-07,37.2675953,127.0476395
7915,경기도 수원시,,경기도 수원시 권선구 권선동 1332,3,2018-12,37.2539598,127.0265079
7916,경기도 수원시,경기도 수원시 권선구 권광로 56번길 24,경기도 수원시 권선구 권선동 1333,3,2018-12,37.2519864,127.027533
7921,경기도 수원시,경기도 수원시 영통구 덕영대로1673번길 28,경기도 수원시 영통구 영통동 990-5,1,2011-03,37.2487146,127.0743297
7922,경기도 수원시,,경기도 수원시 영통구 영통동 988-7,1,2011-03,37.2471571,127.0722544
7923,경기도 수원시,경기도 수원시 팔달구 팔달로110번길 38,경기도 수원시 팔달구 고등동 8-4,4,2018-06,37.2781548,127.0057572
7924,경기도 수원시,경기도 수원시 팔달구 동말로 96-8,경기도 수원시 팔달구 고등동 6-7,5,2018-06,37.278317,127.0044492
7930,경기도 수원시,,경기도 수원시 팔달구 화서동 2-7,3,2018-06,37.2883454,127.001867
7932,경기도 수원시,,경기도 수원시 팔달구 화서동 672,3,2018-06,37.2824613,126.9928687
7935,경기도 수원시,경기도 수원시 팔달구 권광로 260,경기도 수원시 팔달구 인계동 361-2,4,2018-06,37.2704015,127.0354987
7936,경기도 수원시,,경기도 수원시 팔달구 인계동 384,3,2018-06,37.269347,127.0364227
7937,경기도 수원시,경기도 수원시 장안구 율전로 113,경기도 수원시 장안구 율전동 303-1,1,2011-03,37.3000361,126.9696997
7938,경기도 수원시,경기도 수원시 장안구 율전로 113,경기도 수원시 장안구 율전동 304-8,1,2011-03,37.2989817,126.9691701
7939,경기도 수원시,경기도 수원시 장안구 송원로41번길 34,경기도 수원시 장안구 송죽동 502,1,2011-03,37.3004822,127.0062317
7940,경기도 수원시,경기도 수원시 장안구 정조로1060번길 26,경기도 수원시 장안구 송죽동 501-20,1,2011-03,37.3012931,127.0063671
7941,경기도 수원시,경기도 수원시 장안구 덕영대로417번길 98,경기도 수원시 장안구 율전동 148-1,1,2011-03,37.303595,126.9694838
8058,대전광역시 서구청,,대전광역시 서구 가수원동 689,1,2015-08,36.311117,127.344827
8059,대전광역시 서구청,대전광역시 서구 용소로 43번길(가수원동),대전광역시 서구 가수원동 1091,1,2015-08,36.31093002,127.3521251
8060,대전광역시 서구청,,대전광역시 서구 가수원동 1101,1,2015-08,36.3104278,127.3528204
8061,대전광역시 서구청,,대전광역시 서구 가수원동 838,1,2015-08,36.3101481,127.3470991
8062,대전광역시 서구청,,대전광역시 서구 가수원동 1149,1,2015-08,36.3093894,127.3526675
8063,대전광역시 서구청,,대전광역시 서구 가수원동 243-3,1,2015-08,36.238622,127.317439
8064,대전광역시 서구청,대전광역시 서구 원도안로25번길 97(가수원동),대전광역시 서구 가수원동 845,1,2015-08,36.3090266,127.3473214
8065,대전광역시 서구청,,대전광역시 서구 가수원동 686-4,1,2015-08,36.308497,127.342818
8066,대전광역시 서구청,대전광역시 서구 도안동로31번길 12-22(가수원동),대전광역시 서구 가수원동 927,1,2015-08,36.3086472,127.3513325
8067,대전광역시 서구청,,대전광역시 서구 가수원동 925,1,2015-08,36.308005,127.349327
8068,대전광역시 서구청,대전광역시 서구 용소로 46번길(가수원동),대전광역시 서구 가수원동 1237,1,2015-08,36.307873,127.3538723
8071,대전광역시 서구청,대전광역시 서구 용소로 40번길(가수원동),대전광역시 서구 가수원동 1358,1,2015-08,36.3067752,127.3530345
8072,대전광역시 서구청,대전광역시 서구 원도안로 26번길 11(가수원동),대전광역시 서구 가수원동 899,1,2015-08,36.3067509,127.3489225
8074,대전광역시 서구청,,대전광역시 서구 가수원동 194-7,1,2015-08,36.3063613,127.3555606
8075,대전광역시 서구청,,대전광역시 서구 가수원동 1052,1,2015-08,36.3050185,127.3508753
8076,대전광역시 서구청,,대전광역시 서구 가수원동 417-2,1,2015-08,36.3046182,127.3475284
9908,경기도 수원시,경기도 수원시 영통구 영통로 319,경기도 수원시 영통구 영통동 963-5,1,2010-08,37.2550727,127.0639992
9909,경기도 수원시,경기도 수원시 영통구 영통로 328,경기도 수원시 영통구 영통동 963-7,1,2010-08,37.2544333,127.0644361925
9912,경기도 수원시,경기도 수원시 영통구 중부대로448번길 57,경기도 수원시 영통구 원천동 235-7,1,2010-08,37.267373,127.0614725
9913,경기도 수원시,경기도 수원시 영통구 매영로 132,경기도 수원시 영통구 매탄동 1230-4,3,2017-12,37.2665731,127.057278
11803,경기도 수원시,경기도 수원시 영통구 청명로 65,경기도 수원시 영통구 영통동 1045-7,1,2010-08,37.2530453,127.0796653
13401,충청남도 천안시청,충청남도 천안시 동남구 풍세면 수원지길 43,충청남도 천안시 동남구 풍세면 남관리 31-1,1,2020-08,36.7509232,127.1308843
13402,충청남도 천안시청,충청남도 천안시 동남구 풍세면 수원지길 43,충청남도 천안시 동남구 풍세면 남관리 31-1,1,2020-08,36.7509232,127.1308843
13403,충청남도 천안시청,충청남도 천안시 동남구 풍세면 수원지길 43,충청남도 천안시 동남구 풍세면 남관리 31-1,1,2020-08,36.7509232,127.1308843
13455,경기도 수원시,경기도 수원시 장안구 송정로 45,경기도 수원시 장안구 송죽동 402-6,1,2010-08,37.2962023,127.0018669
13461,경기도 수원시,경기도 수원시 장안구 팔달로 241,경기도 수원시 장안구 영화동 435-6,1,2017-05,37.2880117,127.0115314
13462,경기도 수원시,,경기도 수원시 권선구 호매실동 4-2,2,2010-11,37.2725971,126.9612332
13463,경기도 수원시,,경기도 수원시 권선구 호매실동 4-2,2,2010-11,37.2725971,126.9612332
13464,경기도 수원시,,경기도 수원시 영통구 이의동 산 13-97,1,2011-08,37.3034273,127.0521386
13465,경기도 수원시,,경기도 수원시 권선구 권선동 1000-10,1,2011-08,37.2573761,127.0183139
13466,경기도 수원시,경기도 수원시 영통구 청명북로 66,경기도 수원시 영통구 영통동 195-25,1,2019-05,37.2570992,127.0807741
13467,경기도 수원시,,경기도 수원시 팔달구 인계동 359-48,5,2011-08,37.2709334,127.0344729
13468,경기도 수원시,,경기도 수원시 영통구 매탄동 196-125,4,2011-08,37.2707125,127.0485884
13469,경기도 수원시,,경기도 수원시 영통구 원천동 257-15,1,2017-01,37.2664619,127.0637265
13470,경기도 수원시,경기도 수원시 권선구 권선로766번길 9,경기도 수원시 권선구 권선동 1167-13,2,2017-05,37.2564087,127.0345909
13471,경기도 수원시,경기도 수원시 영통구 봉영로1492번길 14,경기도 수원시 영통구 영통동 984-12,4,2011-08,37.2457094,127.0669445
13472,경기도 수원시,경기도 수원시 영통구 인계로292번길 42-3,경기도 수원시 영통구 매탄동 1257-6,4,2011-08,37.2611527,127.0482783
13473,경기도 수원시,경기도 수원시 권선구 세지로12번길 45,경기도 수원시 권선구 세류동 1106,1,2017-01,37.2526818,127.0173661
13475,경기도 수원시,,경기도 수원시 장안구 조원동 781-10,5,2017-06,37.2957334,127.0129533
13476,경기도 수원시,경기도 수원시 장안구 정조로1051번길 29,경기도 수원시 장안구 송죽동 386-1,1,2011-08,37.2984819,127.0044722
13477,경기도 수원시,경기도 수원시 장안구 수일로104번길 28,경기도 수원시 장안구 파장동 630,5,2017-08,37.308258,127.0010546
13478,경기도 수원시,,경기도 수원시 장안구 파장동 279-2,5,2011-08,37.3105644,126.9956738
13479,경기도 수원시,경기도 수원시 팔달구 수성로157번길 41-13,경기도 수원시 팔달구 화서동 683-8,1,2011-08,37.2876778,126.9884474
13480,경기도 수원시,경기도 수원시 장안구 연무로 42-1,경기도 수원시 장안구 연무동 230-32,1,2011-08,37.2950646,127.0269155
13481,경기도 수원시,경기도 수원시 장안구 덕영대로381번길 18,경기도 수원시 장안구 율전동 181-1,1,2011-08,37.3022871,126.964781
13482,경기도 수원시,경기도 수원시 팔달구 팔달문로 23,경기도 수원시 팔달구 지동 402-5,1,2017-01,37.2777391,127.0198628
23984,경기도혈액원,경기도 수원시 팔달구 아주로 9 용성빌딩 2층,경기도 수원시 팔달구 우만2동 578-1 용성빌딩 2층,2,2015-12,37.275741,127.043703
25766,수원시청,,경기도 수원시 권선구 권선동 856-4,1,,37.243254,127.019276
25767,수원시청,,경기도 수원시 장안구 정자동 897,1,,37.294637,126.994687
25768,수원시청,,경기도 수원시 장안구 천천동 12-1,1,,37.304658,126.982214
25769,수원시청,,경기도 수원시 팔달구 화서동 407,1,,37.283094,126.98581
25770,수원시청,,경기도 수원시 영통구 신동 940,1,,37.246787,127.046113
25771,수원시청,,경기도 수원시 장안구 영화동 380-112,1,,37.295035,127.02456
27409,대전광역시 서구청,대전광역시 서구 가수원중로57번길 73(가수원동),대전광역시 서구 가수원동 815-6,1,2010-12,36.297265,127.3538631
27819,경기도 수원시,,경기도 수원시 장안구 송죽동 417-25,1,2011-09,37.298563,126.9997803
28298,경기도 수원시,,경기도 수원시 영통구 영통동 1012-4,1,2011-09,37.2505232,127.0783891
28330,대전광역시 서구청,대전광역시 서구 벌곡로 1359(가수원동),대전광역시 서구 가수원동 471,1,2010-12,36.3027731,127.3528022
36290,공주시청,,"충청남도 공주시 우성면 용봉리 419-2, 공수원추어탕 근처",1,2017-05,36.440992,127.017197
36515,공주시청,,충청남도 공주시 금학동 186-2 (금학동사무소 옆 수원지공원길 입구),1,2015-07,36.4386331748,127.1187478426
36516,공주시청,,충청남도 공주시 금학동 186-2 (금학동사무소 옆 수원지공원길 입구),1,2015-07,36.4386331748,127.1187478426
39013,대전광역시 서구청,대전광역시 서구 가수원중로 43-11(가수원동),대전광역시 서구 가수원동 788-4,1,2010-07,36.3007522,127.3530783
39561,용인시,,"경기도 용인시 처인구 남사면 원암리 195-5 표준공업 연수원, 415-10 (표준페인트 앞),",1,2009-01,37.091149,127.148981
40864,수원도시공사 견인거주자팀,경기도 수원시 권선구 정조로 304,경기도 수원시 권선구 대황교동 253,16,2020-12,37.237136,127.018602
40865,수원도시공사 견인거주자팀,,경기도 수원시 장안구 율전동 181-53,4,2020-12,37.301448,126.966327
40866,수원도시공사 견인거주자팀,,경기도 수원시 장안구 조원1동 859-1,3,2020-01,37.3035517,127.016632
41377,경기도 수원시,,경기도 수원시 영통구 영통동 972-4,1,2011-09,37.2491545,127.0608047
41509,용인시,,경기도 용인시 처인구 마평동 586-7 약수터 앞 약수원룸,4,2008-01,37.230471,127.215661
44090,대전광역시청,대전광역시 서구 가수원동 668-2,대전광역시 서구 가수원동 668-2,1,1999-01,36.303691,127.346072
44732,수원도시공사 환승센터,경기도 수원시 팔달구 덕영대로 지하 907-65,경기도 수원시 팔달구 매산로1가 2-56,20,,37.267819,127.001103
47888,경기도 수원시,경기도 수원시 장안구 덕영대로381번길 78,경기도 수원시 장안구 율전동 167-16,5,2011-01,37.3022069,126.967646
47889,경기도 수원시,경기도 수원시 장안구 덕영대로439번길 23,경기도 수원시 장안구 율전동 211,5,2011-01,37.3017574,126.9710637
47890,경기도 수원시,경기도 수원시 장안구 영화로85번길 12-4,경기도 수원시 장안구 정자동 51-50,5,2011-01,37.2938146,127.0052503
47891,경기도 수원시,경기도 수원시 장안구 장안로287번길 19-2,경기도 수원시 장안구 정자동 533-18,5,2011-01,37.3063741,126.9893913
47892,경기도 수원시,경기도 수원시 팔달구 창룡대로150번길 60,경기도 수원시 팔달구 우만동 476,1,2011-01,37.2887932,127.0283118
47893,경기도 수원시,,경기도 수원시 팔달구 지동 228-1,5,2017-09,37.2850455,127.0253674
47894,경기도 수원시,,경기도 수원시 팔달구 지동 292-2,4,2017-09,37.2797663,127.0210585
47895,경기도 수원시,경기도 수원시 장안구 정조로981번길 13,경기도 수원시 장안구 정자동 6-1,5,2017-05,37.2940397,127.0092314
47896,경기도 수원시,경기도 수원시 권선구 당수로119번길 65-3,경기도 수원시 권선구 당수동 454,5,2017-05,37.2828219,126.9372092
47897,경기도 수원시,경기도 수원시 권선구 구운로4번길 34,경기도 수원시 권선구 구운동 464,5,2017-05,37.2809272,126.9772292
47898,경기도 수원시,경기도 수원시 권선구 세화로151번길 75,경기도 수원시 권선구 서둔동 30-10,4,2017-05,37.2637378,126.9911570229
47899,경기도 수원시,경기도 수원시 권선구 덕영대로963번길 32,경기도 수원시 권선구 세류동 248-1,5,2011-01,37.2627112,127.0046744
47900,경기도 수원시,경기도 수원시 권선구 세지로125번길 6-1,경기도 수원시 권선구 세류동 817-14,5,2011-01,37.2629623,127.0194198
47901,경기도 수원시,경기도 수원시 권선구 삼천병마로1598번길 28-27,경기도 수원시 권선구 오목천동 314-27,5,2011-01,37.2459643,126.9660379
47902,경기도 수원시,경기도 수원시 권선구 노림로 10-3,경기도 수원시 권선구 호매실동 405-3,5,2017-02,37.2668461,126.9545961
47903,경기도 수원시,경기도 수원시 팔달구 매산로96번길 17,경기도 수원시 팔달구 교동 187,2,2011-01,37.2697929,127.0120366
47904,경기도 수원시,경기도 수원시 팔달구 고화로 83,경기도 수원시 팔달구 고등동 10-4,5,2018-06,37.2767401,127.0062307
47905,경기도 수원시,경기도 수원시 팔달구 정조로 898,경기도 수원시 팔달구 북수동 136-1,4,2018-06,37.2879574,127.0149145
47906,경기도 수원시,경기도 수원시 장안구 경수대로 792,경기도 수원시 장안구 영화동 107-8,4,2017-09,37.2927323,127.0188624
47907,경기도 수원시,,경기도 수원시 팔달구 인계동 267-6,5,2017-09,37.2717912,127.026536
47908,경기도 수원시,,경기도 수원시 장안구 율전동 176-10,1,2010-08,37.301368,126.9644544
47909,경기도 수원시,,경기도 수원시 권선구 탑동 521,1,2010-08,37.26432,126.9721166
47910,경기도 수원시,경기도 수원시 권선구 오목천로 31,경기도 수원시 권선구 오목천동 431-1,3,2010-08,37.2402426,126.9657589
47911,경기도 수원시,경기도 수원시 권선구 율전로 9,경기도 수원시 권선구 입북동 243-11,3,2010-08,37.2951495,126.9603749
47912,경기도 수원시,경기도 수원시 권선구 덕영대로1323번길 26-14,경기도 수원시 권선구 권선동 1312-3,1,2010-08,37.2474613,127.0351394
47913,경기도 수원시,경기도 수원시 영통구 영통로 151,경기도 수원시 영통구 망포동 399-4,1,2010-08,37.2408226,127.0551633
47914,경기도 수원시,,경기도 수원시 영통구 망포동 372,1,2010-08,37.2396877,127.0542835
47916,경기도 수원시,,경기도 수원시 영통구 매탄동 1248,1,2017-05,37.2621268,127.0457199
47935,경기도 수원시,,경기도 수원시 팔달구 고등동 50-2,5,2010-06,37.2750102,127.00481
47936,경기도 수원시,경기도 수원시 팔달구 고화로13번길 17,경기도 수원시 팔달구 매산로2가 2-2,4,2010-06,37.2701806,127.0069181
47937,경기도 수원시,경기도 수원시 팔달구 효원로60번길 30,경기도 수원시 팔달구 매산로3가 94-1,5,2010-06,37.2676577,127.007617
47938,경기도 수원시,경기도 수원시 권선구 세지로125번길 26-2,경기도 수원시 권선구 세류동 817-115,5,2018-04,37.2632958,127.0184504
47939,경기도 수원시,경기도 수원시 권선구 동수원로146번길 226-17,경기도 수원시 권선구 곡반정동 542-1,3,2018-04,37.241047,127.0313612
47940,경기도 수원시,경기도 수원시 권선구 동수원로82번길 7-17,경기도 수원시 권선구 곡반정동 565-4,4,2018-04,37.2386059,127.0280358
47941,경기도 수원시,경기도 수원시 권선구 동수원로46번길 7-10,경기도 수원시 권선구 곡반정동 585-14,4,2011-01,37.2355159,127.025533
47942,경기도 수원시,경기도 수원시 권선구 세권로165번길 24,경기도 수원시 권선구 권선동 1055-13,4,2011-01,37.2569879,127.023082
47943,경기도 수원시,경기도 수원시 권선구 권중로12번길 11,경기도 수원시 권선구 권선동 1161,4,2017-08,37.2562922,127.0322236
47944,경기도 수원시,경기도 수원시 권선구 경수대로 313,경기도 수원시 권선구 세류동 1079-1,5,2011-01,37.2548258,127.0207256
47945,경기도 수원시,경기도 수원시 영통구 매탄로65번길 17,경기도 수원시 영통구 매탄동 1166-2,5,2011-01,37.2568215,127.0404978
47946,경기도 수원시,경기도 수원시 영통구 매영로310번길 46,경기도 수원시 영통구 영통동 964-4,5,2011-01,37.2523779,127.0653609
47947,경기도 수원시,경기도 수원시 영통구 월드컵로193번길 83,경기도 수원시 영통구 원천동 28-18,4,2011-01,37.2753181,127.0449493
47948,경기도 수원시,경기도 수원시 장안구 경수대로973번길 24,경기도 수원시 장안구 송죽동 453-31,5,2011-01,37.3034015,127.0038068
47949,경기도 수원시,경기도 수원시 장안구 영화로13번길 14,경기도 수원시 장안구 영화동 428-14,5,2011-01,37.2881970124,127.0091971
47981,경기도 수원시,경기도 수원시 권선구 일월천로4번길 54,경기도 수원시 권선구 구운동 918-10,4,2010-06,37.2823774,126.9751426
48012,경기도 수원시,경기도 수원시 권선구 매송고색로711번길 33,경기도 수원시 권선구 고색동 888-142,5,2018-04,37.2524374,126.9810374
48014,경기도 수원시,경기도 수원시 권선구 수인로296번길 48,경기도 수원시 권선구 구운동 897-14,4,2018-04,37.2848184,126.9721421
