시설번호,놀이시설명,주소1,주소2,설치일자,설치장소,한글주소,위도,경도
500536,진주초등학교 어린이놀이시설,,경상남도 진주시 진주성로24번길 7 (인사동),1895-09-24,학교,경상남도 진주시 진주성로24번길 7 (인사동),35.1930687,128.0783424
539182,봉래초등학교 어린이놀이시설,,경상남도 진주시 의병로 265 (봉래동),1910-07-01,학교,경상남도 진주시 의병로 265 (봉래동),35.1998502,128.0879677
37623,금곡초등학교 어린이놀이시설,,경상남도 진주시 금곡면 월아산로89번길 11,1923-09-10,학교,경상남도 진주시 금곡면 월아산로89번길 11,35.089813,128.184974
500509,봉원초등학교 어린이놀이시설,,경상남도 진주시 의병로 95-20 (상봉동),1967-05-31,학교,경상남도 진주시 의병로 95-20 (상봉동),35.2010664,128.0699194
500126,관봉초등학교 어린이놀이시설,,경상남도 진주시 정촌면 정촌로 629,1970-07-01,학교,경상남도 진주시 정촌면 정촌로 629,35.1370414,128.1436642
500173,미천초등학교 어린이놀이시설,,경상남도 진주시 미천면 안간길 18-8,1971-07-01,학교,경상남도 진주시 미천면 안간길 18-8,35.3189926,128.0879771
28054,상봉주공1차아파트 어린이놀이시설,,경상남도 진주시 창렬로 123 (상봉동),1979-06-15,주택단지,경상남도 진주시 창렬로 123 (상봉동),35.1984971,128.0707287
6273,대동아파트,,경상남도 진주시 도동천로184번길 7 (상대동 대동아파트),1979-11-01,주택단지,경상남도 진주시 도동천로184번길 7 (상대동 대동아파트),35.1861032,128.1192747
5214,상대주공아파트,,경상남도 진주시 상대로 101 (하대동 상대아파트),1980-01-01,주택단지,경상남도 진주시 상대로 101 (하대동 상대아파트),35.1852878,128.1238804
500523,예하초등학교 어린이놀이시설,,경상남도 진주시 정촌면 대축길 10,1980-05-01,학교,경상남도 진주시 정촌면 대축길 10,35.1234273,128.094552
3311,촉석아파트,,경상남도 진주시 솔밭로92번길 5 (상평동 촉석맨션),1980-12-20,주택단지,경상남도 진주시 솔밭로92번길 5 (상평동 촉석맨션),35.1778451,128.1075207
514688,봉래초등학교병설유치원 어린이놀이시설,,경상남도 진주시 의병로 265 (봉래동),1981-03-01,유치원,경상남도 진주시 의병로 265 (봉래동),35.1998502,128.0879677
518156,진성초등학교 어린이놀이시설,,경상남도 진주시 진성면 진성로355번길 10,1981-03-01,학교,경상남도 진주시 진성면 진성로355번길 10,35.1700679,128.22475
29827,사봉초등학교 어린이놀이시설,,경상남도 진주시 사봉면 사군로 99,1981-03-02,학교,경상남도 진주시 사봉면 사군로 99,35.1890632,128.269376
500134,남강초등학교 어린이놀이시설,,경상남도 진주시 모덕로 99 (상대동),1982-03-20,학교,경상남도 진주시 모덕로 99 (상대동),35.1835861,128.1090662
5215,하대주공아파트,,경상남도 진주시 상대로 125 (하대동 주공아파트),1982-07-01,주택단지,경상남도 진주시 상대로 125 (하대동 주공아파트),35.1853066,128.1262397
500507,봉원초등학교병설유치원 어린이놀이시설,,경상남도 진주시 의병로 95-20 (상봉동),1983-03-01,유치원,경상남도 진주시 의병로 95-20 (상봉동),35.2010664,128.0699194
500578,반야유치원 어린이놀이시설,,경상남도 진주시 문산읍 월아산로1094번길 10,1983-03-05,유치원,경상남도 진주시 문산읍 월아산로1094번길 10,35.1694811,128.1627798
7404,이현주공(1차)아파트,,경상남도 진주시 서장대로 247 (이현동),1983-12-01,주택단지,경상남도 진주시 서장대로 247 (이현동),35.1915446,128.0603458
6860,이현주공(2차)아파트,,경상남도 진주시 서장대로 247 (이현동),1984-12-01,주택단지,경상남도 진주시 서장대로 247 (이현동),35.1915446,128.0603458
33374,도동초등학교 어린이놀이시설,,경상남도 진주시 대신로 324 (하대동),1985-03-01,유치원,경상남도 진주시 대신로 324 (하대동),35.1898271,128.1178277
5176,칠암현대아파트,,경상남도 진주시 강남로255번길 18 (칠암동 현대아파트),1985-08-16,주택단지,경상남도 진주시 강남로255번길 18 (칠암동 현대아파트),35.1871739,128.0890596
534890,관봉초등학교병설유치원 어린이놀이시설,,경상남도 진주시 정촌면 정촌로 629,1985-09-02,유치원,경상남도 진주시 정촌면 정촌로 629,35.1370414,128.1436642
3309,망경한주맨션,,경상남도 진주시 망경북길 53 (망경동 망경한주맨션),1985-12-01,주택단지,경상남도 진주시 망경북길 53 (망경동 망경한주맨션),35.1862843,128.0840958
500528,이반성초등학교 어린이놀이시설,,경상남도 진주시 이반성면 오봉산로 762,1986-04-01,학교,경상남도 진주시 이반성면 오봉산로 762,35.1731664,128.3293083
500564,진주교육대학교부설초등학교 어린이놀이시설,,경상남도 진주시 진양호로369번길 3 (신안동),1986-09-16,학교,경상남도 진주시 진양호로369번길 3 (신안동),35.1863618,128.0670038
6264,상봉(2)주공아파트,,경상남도 진주시 진주성로147번길 10 (상봉동 상봉2주공아파트),1986-10-11,주택단지,경상남도 진주시 진주성로147번길 10 (상봉동 상봉2주공아파트),35.2034444,128.0733195
500527,명석초등학교병설유치원 어린이놀이시설,,경상남도 진주시 명석면 광제산로 23,1986-11-01,유치원,경상남도 진주시 명석면 광제산로 23,35.2181611,128.0403011
12517,신익무지개아파트,,경상남도 진주시 숙호산로 64-5 (이현동 신익무지개아파트),1987-08-01,주택단지,경상남도 진주시 숙호산로 64-5 (이현동 신익무지개아파트),35.1865401,128.0619765
6268,이현한주아파트,,경상남도 진주시 서장대로278번길 9 (이현동 이현한주아파트),1987-12-01,주택단지,경상남도 진주시 서장대로278번길 9 (이현동 이현한주아파트),35.1914061,128.0643409
500538,지수초등학교 어린이놀이시설,,경상남도 진주시 지수면 지사로 806,1988-06-01,학교,경상남도 진주시 지수면 지사로 806,35.2332987,128.2525014
529715,지수초등학교병설유치원 어린이놀이시설,,경상남도 진주시 지수면 지사로 806,1988-06-01,유치원,경상남도 진주시 지수면 지사로 806,35.2332987,128.2525014
3308,평거주공1차아파트,,경상남도 진주시 진양호로185번길 7 (평거동 주공1차아파트),1988-11-01,주택단지,경상남도 진주시 진양호로185번길 7 (평거동 주공1차아파트),35.1718345,128.0579387
5208,삼전2차아파트,,경상남도 진주시 모덕로306번길 17 (하대동 삼전2차아파트),1989-04-01,주택단지,경상남도 진주시 모덕로306번길 17 (하대동 삼전2차아파트),35.1876352,128.1278061
5207,올림피아골든맨션,,경상남도 진주시 모덕로270번길 12 (하대동 올림피아골든맨션),1989-07-01,주택단지,경상남도 진주시 모덕로270번길 12 (하대동 올림피아골든맨션),35.1882406,128.123113
5183,신안현대아파트 - ① 102동 앞,,경상남도 진주시 천수로 315 (신안동 현대아파트),1989-10-31,주택단지,경상남도 진주시 천수로 315 (신안동 현대아파트),35.1842087,128.0719371
6263,신안현대아파트 - ② 105동 앞,,경상남도 진주시 천수로 315 (신안동 현대아파트),1989-10-31,주택단지,경상남도 진주시 천수로 315 (신안동 현대아파트),35.1842087,128.0719371
6276,임광아파트,,경상남도 진주시 모덕로 293 (하대동 임광아파트),1989-12-01,주택단지,경상남도 진주시 모덕로 293 (하대동 임광아파트),35.1895773,128.1260216
5203,상평국민1차아파트,,경상남도 진주시 남강로1093번길 14 (상평동 국민1차아파트),1990-02-01,주택단지,경상남도 진주시 남강로1093번길 14 (상평동 국민1차아파트),35.1696465,128.1121405
5180,한주럭키타운아파트 - ① 2동 앞,,경상남도 진주시 진주대로 859 (주약동 한주럭키아파트),1990-04-30,주택단지,경상남도 진주시 진주대로 859 (주약동 한주럭키아파트),35.1761809,128.0909911
5181,한주럭키타운아파트 - ② 12동 앞,,경상남도 진주시 진주대로 859 (주약동 한주럭키아파트),1990-04-30,주택단지,경상남도 진주시 진주대로 859 (주약동 한주럭키아파트),35.1761809,128.0909911
500562,진주혜광학교 실외 어린이놀이시설,,경상남도 진주시 문산읍 월아산로1048번길 36,1990-06-01,학교,경상남도 진주시 문산읍 월아산로1048번길 36,35.1645186,128.1684899
5148,한주파크맨션,,경상남도 진주시 남강로 479 (신안동 한주파크맨션),1990-08-09,주택단지,경상남도 진주시 남강로 479 (신안동 한주파크맨션),35.1814024,128.0723572
5204,상평국민2차아파트,,경상남도 진주시 공단로236번길 24 (상평동 89상평국민주택(2차)),1990-09-01,주택단지,경상남도 진주시 공단로236번길 24 (상평동 89상평국민주택(2차)),35.1739455,128.1253309
12521,상평국민3차아파트,,경상남도 진주시 남강로1069번길 4-1 (상평동 국민주택3차),1990-09-01,주택단지,경상남도 진주시 남강로1069번길 4-1 (상평동 국민주택3차),35.1690834,128.1095956
5137,하대어린이집 놀이시설,경남 진주시 하대1동 535,경상남도 진주시 모덕로197번길 7 (하대동),1990-09-11,어린이집,경상남도 진주시 모덕로197번길 7 (하대동),35.1891826,128.1152875
5192,금산금호아파트,,경상남도 진주시 금산면 금산로 130 (금호맨션),1990-10-01,주택단지,경상남도 진주시 금산면 금산로 130 (금호맨션),35.2127405,128.1494346
6265,삼영아파트,,경상남도 진주시 상봉대룡길 14 (상봉동 삼영아파트),1991-01-01,주택단지,경상남도 진주시 상봉대룡길 14 (상봉동 삼영아파트),35.2010297,128.0689053
500519,신안초등학교 어린이놀이시설,,경상남도 진주시 평거로139번길 8 (신안동),1991-03-02,학교,경상남도 진주시 평거로139번길 8 (신안동),35.1827022,128.06862
529714,신안초등학교병설유치원 어린이놀이시설,,경상남도 진주시 평거로139번길 8 (신안동),1991-03-02,유치원,경상남도 진주시 평거로139번길 8 (신안동),35.1827022,128.06862
6278,동서훼밀리타운,,경상남도 진주시 선학산길 22 (상대동 동서훼밀리),1991-06-10,주택단지,경상남도 진주시 선학산길 22 (상대동 동서훼밀리),35.184131,128.1091099
5221,럭키강변아파트,,경상남도 진주시 남강로 1407 (하대동 럭키강변아파트),1991-07-01,주택단지,경상남도 진주시 남강로 1407 (하대동 럭키강변아파트),35.186633,128.1281327
5202,동국강변1차아파트,,경상남도 진주시 큰들로66번길 12 (상평동 동국강변아파트),1991-08-01,주택단지,경상남도 진주시 큰들로66번길 12 (상평동 동국강변아파트),35.1702161,128.1095584
6861,상대현대아파트 내 놀이터(106동 옆),,경상남도 진주시 모덕로181번길 7 (상대동 상대현대아파트),1991-10-01,주택단지,경상남도 진주시 모덕로181번길 7 (상대동 상대현대아파트),35.1871887,128.113283
5146,한보타워맨션(1차)아파트,,경상남도 진주시 모덕로306번길 2 (하대동 한보타워맨션),1992-01-04,주택단지,경상남도 진주시 모덕로306번길 2 (하대동 한보타워맨션),35.1887524,128.1270643
5189,그린타운,,경상남도 진주시 석갑로156번길 19 (신안동 그린타운),1992-03-01,주택단지,경상남도 진주시 석갑로156번길 19 (신안동 그린타운),35.1832886,128.0644944
5175,판문현대아파트,,경상남도 진주시 진양호로51번길 6-7 (판문동 현대아파트),1992-03-28,주택단지,경상남도 진주시 진양호로51번길 6-7 (판문동 현대아파트),35.1680089,128.0461084
3301,대영아파트,,경상남도 진주시 말티고개로 102-5 (하대동 하대대영아파트),1992-04-01,주택단지,경상남도 진주시 말티고개로 102-5 (하대동 하대대영아파트),35.1963013,128.1126125
6258,명석동신아파트,,경상남도 진주시 명석면 광제산로 11-21 (동신아파트),1992-04-30,주택단지,경상남도 진주시 명석면 광제산로 11-21 (동신아파트),35.2169396,128.0391042
12524,하영그린맨션,,경상남도 진주시 진양호로97번길 8-3 (평거동 하영그린맨션),1992-07-01,주택단지,경상남도 진주시 진양호로97번길 8-3 (평거동 하영그린맨션),35.1682447,128.051075
5216,상봉한주아파트,,경상남도 진주시 진주대로1208번길 20 (상봉동 상봉한주아파트),1992-08-08,주택단지,경상남도 진주시 진주대로1208번길 20 (상봉동 상봉한주아파트),35.196319,128.0710108
521293,동국강변(2)타워아파트,,경상남도 진주시 돗골로19번길 12 (상평동 2차동국강변타워),1992-10-19,주택단지,경상남도 진주시 돗골로19번길 12 (상평동 2차동국강변타워),35.1699247,128.1116175
6254,대경하대아파트,,경상남도 진주시 도동로264번길 31 (하대동 대경하대아파트),1992-12-01,주택단지,경상남도 진주시 도동로264번길 31 (하대동 대경하대아파트),35.1943632,128.1249593
5177,도동대림아파트,,경상남도 진주시 하대로40번길 4 (하대동 도동대림아파트),1992-12-03,주택단지,경상남도 진주시 하대로40번길 4 (하대동 도동대림아파트),35.1924443,128.1148087
5198,하이로드빌라,,경상남도 진주시 진주대로 580 (가좌동 하이로드빌라),1993-01-01,주택단지,경상남도 진주시 진주대로 580 (가좌동 하이로드빌라),35.157939,128.1087419
5174,하대한보3차아파트,,경상남도 진주시 남강로 1403 (하대동),1993-02-23,주택단지,경상남도 진주시 남강로 1403 (하대동),35.1859718,128.1285092
5169,벽산동신아파트,,경상남도 진주시 진양호로125번길 22-12 (평거동 벽산동신2아파트),1993-03-25,주택단지,경상남도 진주시 진양호로125번길 22-12 (평거동 벽산동신2아파트),35.1710989,128.0529053
3304,하영무지개아파트,,경상남도 진주시 진양호로 153 (평거동 하영무지개맨션),1993-05-01,주택단지,경상남도 진주시 진양호로 153 (평거동 하영무지개맨션),35.1699714,128.0554547
5182,평거한보타운아파트 -①101동 앞,,경상남도 진주시 진양호로97번길 19-6 (평거동 한보타운),1993-05-15,주택단지,경상남도 진주시 진양호로97번길 19-6 (평거동 한보타운),35.1696197,128.0498648
500582,소화유치원 어린이놀이시설,,경상남도 진주시 문산읍 소문길67번길 9-4,1993-06-01,유치원,경상남도 진주시 문산읍 소문길67번길 9-4,35.172435,128.1688032
5151,가좌주공2차아파트 5-놀이터(212동옆),,경상남도 진주시 가호로 26 (가좌동 진주가좌주공아파트),1993-11-11,주택단지,경상남도 진주시 가호로 26 (가좌동 진주가좌주공아파트),35.1621526,128.109842
5152,가좌주공2차아파트 2-놀이터(208동앞),,경상남도 진주시 가호로 26 (가좌동 진주가좌주공아파트),1993-11-11,주택단지,경상남도 진주시 가호로 26 (가좌동 진주가좌주공아파트),35.1621526,128.109842
5153,가좌주공2차아파트 6-놀이터(관리동앞),,경상남도 진주시 가호로 26 (가좌동 진주가좌주공아파트),1993-11-11,주택단지,경상남도 진주시 가호로 26 (가좌동 진주가좌주공아파트),35.1621526,128.109842
12515,가좌주공2차아파트 3-놀이터(202동앞),,경상남도 진주시 가호로 26 (가좌동 가좌주공아파트),1993-11-11,주택단지,경상남도 진주시 가호로 26 (가좌동 가좌주공아파트),35.1621526,128.109842
541578,가좌주공2차아파트 4-놀이터(211동앞),,경상남도 진주시 가호로 26 (가좌동 가좌주공아파트),1993-11-11,주택단지,경상남도 진주시 가호로 26 (가좌동 가좌주공아파트),35.1621526,128.109842
5194,문산고려아파트 어린이놀이터,,경상남도 진주시 문산읍 동부로 538-8 (문산고려아파트),1994-04-09,주택단지,경상남도 진주시 문산읍 동부로 538-8 (문산고려아파트),35.1634061,128.1609618
6279,유곡한보아파트,,경상남도 진주시 진주대로 1278 (유곡동 유곡한보아파트),1994-05-01,주택단지,경상남도 진주시 진주대로 1278 (유곡동 유곡한보아파트),35.1943472,128.0637233
12525,동성가든타워아파트,,경상남도 진주시 진주대로 901 (강남동 동성가든타워),1994-07-01,주택단지,경상남도 진주시 진주대로 901 (강남동 동성가든타워),35.1810825,128.0894558
500545,촉석초등학교 어린이놀이시설,,경상남도 진주시 평거로 259 (이현동),1994-08-01,학교,경상남도 진주시 평거로 259 (이현동),35.1912759,128.0616579
6270,평거대경그린아파트,,경상남도 진주시 순환로573번길 21 (평거동 대경그린파크),1994-10-01,주택단지,경상남도 진주시 순환로573번길 21 (평거동 대경그린파크),35.1731699,128.0577837
3305,초전일동아파트,,경상남도 진주시 초전북로 20 (초전동 초전일동아파트),1994-11-16,주택단지,경상남도 진주시 초전북로 20 (초전동 초전일동아파트),35.2074756,128.109346
3302,이현덕산아파트,,경상남도 진주시 서장대로178번길 17 (이현동 진주덕산아파트),1995-05-13,주택단지,경상남도 진주시 서장대로178번길 17 (이현동 진주덕산아파트),35.1876444,128.0590438
7169,한주한보타운 놀이시설,,경상남도 진주시 망경로296번길 17 (강남동 강남한주한보타운),1995-05-29,주택단지,경상남도 진주시 망경로296번길 17 (강남동 강남한주한보타운),35.1842576,128.0867435
521297,초전대림아파트,,경상남도 진주시 말티고개로 113 (초전동 초전대림아파트),1995-07-05,주택단지,경상남도 진주시 말티고개로 113 (초전동 초전대림아파트),35.1973625,128.1139159
5222,한보하이타운아파트,경상남도 진주시 평거동 301-1,,1995-08-01,주상복합,경상남도 진주시 평거동 301-1,35.172635,128.0592791
500130,금성초등학교 어린이놀이시설,,경상남도 진주시 말티고개로123번길 19 (초전동),1995-09-01,학교,경상남도 진주시 말티고개로123번길 19 (초전동),35.1983092,128.1148277
529689,진주초등학교병설유치원 어린이놀이시설,,경상남도 진주시 진주성로24번길 7 (인사동),1995-09-24,유치원,경상남도 진주시 진주성로24번길 7 (인사동),35.1930687,128.0783424
5178,칠암한주아파트,,경상남도 진주시 강남로 101 (칠암동 칠암한주아파트),1995-10-25,주택단지,경상남도 진주시 강남로 101 (칠암동 칠암한주아파트),35.1776896,128.0973211
3300,신안주공2차(2-1)아파트 - ②210동앞,,경상남도 진주시 신안들말길 17 (신안동 주공1차아파트),1996-01-01,주택단지,경상남도 진주시 신안들말길 17 (신안동 주공1차아파트),35.1776294,128.0689262
5145,신안주공2차(2-1)아파트 - ①206옆,,경상남도 진주시 신안들말길 17 (신안동 주공1차아파트),1996-01-01,주택단지,경상남도 진주시 신안들말길 17 (신안동 주공1차아파트),35.1776294,128.0689262
36671,반성초등학교병설유치원 어린이놀이시설,,경상남도 진주시 일반성면 동부로 2060,1996-03-01,유치원,경상남도 진주시 일반성면 동부로 2060,35.1697161,128.285625
529710,반성초등학교 어린이놀이시설,,경상남도 진주시 일반성면 동부로 2060,1996-03-01,학교,경상남도 진주시 일반성면 동부로 2060,35.1697161,128.285625
538662,집현초등학교 어린이놀이시설,,경상남도 진주시 집현면 지내길 271,1996-03-01,학교,경상남도 진주시 집현면 지내길 271,35.241978,128.0927912
6236,세계로어린이집 놀이시설,경남 진주시 하대1동 347-14번지,경상남도 진주시 도동로215번길 17 (하대동),1996-03-19,어린이집,경상남도 진주시 도동로215번길 17 (하대동),35.1893638,128.120344
5157,하대현대아파트 - ① 105동 앞,,경상남도 진주시 하대로 142 (하대동 현대아파트),1996-06-01,주택단지,경상남도 진주시 하대로 142 (하대동 현대아파트),35.1919639,128.126073
5158,하대현대아파트 - ② 104동 뒤편,,경상남도 진주시 하대로 142 (하대동 현대아파트),1996-06-01,주택단지,경상남도 진주시 하대로 142 (하대동 현대아파트),35.1919639,128.126073
5147,호탄삼성아파트,,경상남도 진주시 동부로43번길 10-13 (호탄동 삼성아파트),1996-09-23,주택단지,경상남도 진주시 동부로43번길 10-13 (호탄동 삼성아파트),35.1628026,128.1136105
5172,신안주공2단지아파트 - ① 201동 앞,,경상남도 진주시 신안들말길 47 (신안동 주공2차아파트),1996-10-25,주택단지,경상남도 진주시 신안들말길 47 (신안동 주공2차아파트),35.1790528,128.0665505
5173,신안주공2단지아파트 - ② 203동 앞,,경상남도 진주시 신안들말길 47 (신안동 주공2차아파트),1996-10-25,주택단지,경상남도 진주시 신안들말길 47 (신안동 주공2차아파트),35.1790528,128.0665505
6277,들말한보아파트 놀이터 (관리동),,경상남도 진주시 평거로39번길 9 (평거동 들말한보타운),1997-01-01,주택단지,경상남도 진주시 평거로39번길 9 (평거동 들말한보타운),35.1735144,128.0633382
6870,들말한보아파트 놀이터 (102동),,경상남도 진주시 평거로39번길 9 (평거동 들말한보타운),1997-01-01,주택단지,경상남도 진주시 평거로39번길 9 (평거동 들말한보타운),35.1735144,128.0633382
12492,사회복지법인 리라어린이집 놀이시설,경남 진주시금산면 송백리 556-2번지,경상남도 진주시 금산면 송백로 399,1997-03-15,어린이집,경상남도 진주시 금산면 송백로 399,35.2047564,128.1339843
5161,초전청구타운(B)아파트 - 107동 옆,,경상남도 진주시 대신로475번길 16-5 (초전동 청구타운),1997-08-01,주택단지,경상남도 진주시 대신로475번길 16-5 (초전동 청구타운),35.2029975,128.1131393
6253,초전청구타운(A)아파트 - 101동 앞,,경상남도 진주시 대신로475번길 16-5 (초전동 청구타운),1997-08-01,주택단지,경상남도 진주시 대신로475번길 16-5 (초전동 청구타운),35.2029975,128.1131393
12513,진주망경한보타운아파트 105동앞,,경상남도 진주시 망경로 234-5 (망경동 망경한보타운),1997-10-18,주택단지,경상남도 진주시 망경로 234-5 (망경동 망경한보타운),35.1822013,128.0802
12514,진주망경한보타운아파트 107동앞,,경상남도 진주시 망경로 234-5 (망경동 망경한보타운),1997-10-18,주택단지,경상남도 진주시 망경로 234-5 (망경동 망경한보타운),35.1822013,128.0802
7310,흥한스위트 주상복합(4층옥상),경상남도 진주시 신안동 14-2,,1998-02-01,주상복합,경상남도 진주시 신안동 14-2,35.1794004,128.0600511
12491,발도르프자유어린이집 놀이시설,경남 진주시 상대1동 287-22번지,경상남도 진주시 솔밭로139번길 11 (상대동),1998-04-08,어린이집,경상남도 진주시 솔밭로139번길 11 (상대동),35.1815231,128.1056083
12496,솔별어린이집 놀이시설,경남 진주시 초전동 822-9,경상남도 진주시 대신로449번길 9-6 (초전동),1999-01-09,어린이집,경상남도 진주시 대신로449번길 9-6 (초전동),35.2002637,128.1152864
500616,월경사금강유치원 어린이놀이시설,,경상남도 진주시 망경로224번길 45 (망경동),1999-01-11,유치원,경상남도 진주시 망경로224번길 45 (망경동),35.1810714,128.0803267
7307,망경어린이집 놀이시설,경남 진주시 망경동 387-1,경상남도 진주시 망진산길4번길 13 (망경동),1999-04-09,어린이집,경상남도 진주시 망진산길4번길 13 (망경동),35.1805377,128.0817963
5200,상대한주그린아파트,,경상남도 진주시 선학산길 46 (상대동 상대한주그린아파트),1999-08-01,주택단지,경상남도 진주시 선학산길 46 (상대동 상대한주그린아파트),35.1863581,128.1107455
500172,문산초등학교병설유치원 어린이놀이시설,,경상남도 진주시 문산읍 소문길 11,1999-10-29,유치원,경상남도 진주시 문산읍 소문길 11,35.1714053,128.1622365
12526,대경강남타운(주상복합)아파트,,경상남도 진주시 진주대로891번길 16 (강남동 대경강남타운),1999-12-01,주택단지,경상남도 진주시 진주대로891번길 16 (강남동 대경강남타운),35.180479,128.0896762
5168,금호석류마을아파트 - ② 115동 뒤,,경상남도 진주시 강남로 45 (주약동 금호석류마을),1999-12-17,주택단지,경상남도 진주시 강남로 45 (주약동 금호석류마을),35.1726648,128.0953869
6255,금호석류마을아파트 - ① 101동 앞,,경상남도 진주시 강남로 45 (주약동 금호석류마을),1999-12-17,주택단지,경상남도 진주시 강남로 45 (주약동 금호석류마을),35.1726648,128.0953869
500514,수곡초등학교 어린이놀이시설,,경상남도 진주시 수곡면 곤수로 1000,1999-12-31,학교,경상남도 진주시 수곡면 곤수로 1000,35.200964,127.9320448
6259,신안1차흥한타운아파트,,경상남도 진주시 진양호로328번길 4 (신안동 신안1차흥한타운),2000-03-01,주택단지,경상남도 진주시 진양호로328번길 4 (신안동 신안1차흥한타운),35.181534,128.0675629
500628,한샘유치원 어린이놀이시설,,경상남도 진주시 망경남길 5-3 (망경동),2000-04-01,유치원,경상남도 진주시 망경남길 5-3 (망경동),35.1792564,128.0849173
5142,진주현대금빛마을 - ①101동 앞,,경상남도 진주시 집현면 진산로 675 (현대아파트),2000-08-01,주택단지,경상남도 진주시 집현면 진산로 675 (현대아파트),35.2384894,128.0902755
5143,진주현대금빛마을 - ②103동 앞,,경상남도 진주시 집현면 진산로 675 (현대아파트),2000-08-01,주택단지,경상남도 진주시 집현면 진산로 675 (현대아파트),35.2384894,128.0902755
5159,주약현대아파트 - ① 104동 앞,,경상남도 진주시 진주대로815번길 11 (주약동 주약현대아파트),2000-11-01,주택단지,경상남도 진주시 진주대로815번길 11 (주약동 주약현대아파트),35.1718994,128.0927678
5160,주약현대아파트 - ③ 116동 뒤,,경상남도 진주시 진주대로815번길 11 (주약동 주약현대아파트),2000-11-01,주택단지,경상남도 진주시 진주대로815번길 11 (주약동 주약현대아파트),35.1718994,128.0927678
6251,주약현대아파트 - ② 115동 앞,,경상남도 진주시 진주대로815번길 11 (주약동 주약현대아파트),2000-11-01,주택단지,경상남도 진주시 진주대로815번길 11 (주약동 주약현대아파트),35.1718994,128.0927678
6252,주약현대아파트 - ④ 117동 뒤,,경상남도 진주시 진주대로815번길 11 (주약동 주약현대아파트),2000-11-01,주택단지,경상남도 진주시 진주대로815번길 11 (주약동 주약현대아파트),35.1718994,128.0927678
3306,대경빌라트아파트,,경상남도 진주시 가호로 79 (호탄동 대경빌라트),2000-12-01,주택단지,경상남도 진주시 가호로 79 (호탄동 대경빌라트),35.1647191,128.1138662
6240,엔젤스쿨어린이집 놀이시설,경남 진주시금산면 장사리 853-12 엔젤스쿨어린이집,경상남도 진주시 금산면 금산순환로56번길 6 엔젤스쿨어린이집,2001-02-27,어린이집,경상남도 진주시 금산면 금산순환로56번길 6 엔젤스쿨어린이집,35.2186103,128.1496452
500135,내동초등학교 어린이놀이시설,,경상남도 진주시 내동면 순환로 426,2001-06-11,학교,경상남도 진주시 내동면 순환로 426,35.1649043,128.0678955
6866,하대대림아파트,,경상남도 진주시 도동천로 310 (하대동 하대대림아파트),2001-07-01,주택단지,경상남도 진주시 도동천로 310 (하대동 하대대림아파트),35.1941021,128.1275873
5195,문산한양하이빌 아파트,,경상남도 진주시 문산읍 월아산로 1083-10 (문산한양하이빌),2001-08-01,주택단지,경상남도 진주시 문산읍 월아산로 1083-10 (문산한양하이빌),35.1670816,128.161865
5162,금산흥한골든빌아파트 - ① 101102동 옆,,경상남도 진주시 금산면 금산로 123 (금산흥한골든빌),2002-01-01,주택단지,경상남도 진주시 금산면 금산로 123 (금산흥한골든빌),35.2151739,128.1503702
5163,금산흥한골든빌아파트 - ②108동 옆,,경상남도 진주시 금산면 금산로 123 (금산흥한골든빌),2002-01-01,주택단지,경상남도 진주시 금산면 금산로 123 (금산흥한골든빌),35.2151739,128.1503702
5164,금산흥한골든빌아파트 - ③ 105동 옆,,경상남도 진주시 금산면 금산로 123 (금산흥한골든빌),2002-01-01,주택단지,경상남도 진주시 금산면 금산로 123 (금산흥한골든빌),35.2151739,128.1503702
5128,고운나라재능어린이집 놀이시설,경남 진주시 상봉동 195-19,경상남도 진주시 진주성로 193 (상봉동),2002-01-02,어린이집,경상남도 진주시 진주성로 193 (상봉동),35.2052529,128.0727775
500520,신진초등학교 어린이놀이시설,,경상남도 진주시 신평공원길57번길 19 (평거동),2002-03-02,학교,경상남도 진주시 신평공원길57번길 19 (평거동),35.1748532,128.0664454
5218,주약한보은빛마을아파트 - ① 관리동앞,,경상남도 진주시 천수로 30 (주약동 한보은빛마을아파트),2002-03-28,주택단지,경상남도 진주시 천수로 30 (주약동 한보은빛마을아파트),35.1709726,128.0932489
5219,주약한보은빛마을아파트 - ② 102동앞,,경상남도 진주시 천수로 30 (주약동 한보은빛마을아파트),2002-03-28,주택단지,경상남도 진주시 천수로 30 (주약동 한보은빛마을아파트),35.1709726,128.0932489
6266,신안원정그린빌,,경상남도 진주시 촉석로50번길 8 (신안동 신안원정그린빌),2002-11-01,주택단지,경상남도 진주시 촉석로50번길 8 (신안동 신안원정그린빌),35.1905577,128.0683052
6853,둘리라창의어린이집 놀이시설,경남 진주시금산면 장사리 흥한골든빌아파트 내 둘리라창의어린이집,경상남도 진주시 금산면 금산로 123 (금산흥한골든빌),2003-01-10,어린이집,경상남도 진주시 금산면 금산로 123 (금산흥한골든빌),35.2151739,128.1503702
500580,성모유치원 어린이놀이시설,,경상남도 진주시 향교로42번길 5 (옥봉동),2003-01-10,유치원,경상남도 진주시 향교로42번길 5 (옥봉동),35.1986755,128.0872804
500534,주약초등학교 어린이놀이시설,,경상남도 진주시 천수로 64 (주약동),2003-03-01,학교,경상남도 진주시 천수로 64 (주약동),35.1724206,128.0916181
3307,일신아파트 어린이놀이시설,,경상남도 진주시 하대로34번길 10 (하대동 일신아파트),2003-05-10,주택단지,경상남도 진주시 하대로34번길 10 (하대동 일신아파트),35.1935658,128.1147373
6256,대동디지털황토아파트 - ① 102동 옆,,경상남도 진주시 가호로44번길 7 (호탄동 대동디지털황토아파트),2003-05-29,주택단지,경상남도 진주시 가호로44번길 7 (호탄동 대동디지털황토아파트),35.1627412,128.1121295
6257,대동디지털황토아파트 - ② 104동 앞,,경상남도 진주시 가호로44번길 7 (호탄동 대동디지털황토아파트),2003-05-29,주택단지,경상남도 진주시 가호로44번길 7 (호탄동 대동디지털황토아파트),35.1627412,128.1121295
500524,명석초등학교 어린이놀이시설,,경상남도 진주시 명석면 광제산로 23,2003-12-01,학교,경상남도 진주시 명석면 광제산로 23,35.2181611,128.0403011
500171,망경초등학교 어린이놀이시설,,경상남도 진주시 천수로 175 (망경동),2004-02-02,학교,경상남도 진주시 천수로 175 (망경동),35.1797445,128.0828312
5141,햇살어린이집 놀이시설,경남 진주시 신안동 818-4,경상남도 진주시 석갑로91번길 13 (신안동),2004-08-13,어린이집,경상남도 진주시 석갑로91번길 13 (신안동),35.1786595,128.0601504
5154,금산아이파크아파트 - ① 101동 뒤,,경상남도 진주시 금산면 중천로 82 (금산아이파크아파트),2004-08-23,주택단지,경상남도 진주시 금산면 중천로 82 (금산아이파크아파트),35.2164367,128.1457671
5155,금산아이파크아파트 - ② 109동 뒤,,경상남도 진주시 금산면 중천로 82 (금산아이파크아파트),2004-08-23,주택단지,경상남도 진주시 금산면 중천로 82 (금산아이파크아파트),35.2164367,128.1457671
5156,금산아이파크아파트 - ③ 110동 옆,,경상남도 진주시 금산면 중천로 82 (금산아이파크아파트),2004-08-23,주택단지,경상남도 진주시 금산면 중천로 82 (금산아이파크아파트),35.2164367,128.1457671
12476,원계공원 어린이놀이시설,,경상남도 진주시 진주대로404번길 24 (가좌동),2005-01-01,도시공원,경상남도 진주시 진주대로404번길 24 (가좌동),35.1454173,128.1037923
12508,숲속연어어린이집 놀이시설,경남 진주시 장재동 287-4번지,경상남도 진주시 장재새미길 38 (장재동),2005-10-13,어린이집,경상남도 진주시 장재새미길 38 (장재동),35.2082554,128.098104
521286,가좌주공3단지 어린이놀이시설1 (304동),,경상남도 진주시 진주대로568번길 14 (가좌동 가좌3차주공아파트),2005-10-14,주택단지,경상남도 진주시 진주대로568번길 14 (가좌동 가좌3차주공아파트),35.1574647,128.1092169
521287,가좌주공3단지 어린이놀이시설2 (308동),,경상남도 진주시 진주대로568번길 14 (가좌동 가좌3차주공아파트),2005-10-14,주택단지,경상남도 진주시 진주대로568번길 14 (가좌동 가좌3차주공아파트),35.1574647,128.1092169
521288,가좌주공3단지 어린이놀이시설3 (301동),,경상남도 진주시 진주대로568번길 14 (가좌동 가좌3차주공아파트),2005-10-14,주택단지,경상남도 진주시 진주대로568번길 14 (가좌동 가좌3차주공아파트),35.1574647,128.1092169
500503,봉곡초등학교 어린이놀이시설,,경상남도 진주시 북장대로36번길 8 (봉곡동),2005-10-22,학교,경상남도 진주시 북장대로36번길 8 (봉곡동),35.1945929,128.074925
536242,아이소크라테스유치원 어린이놀이시설,,경상남도 진주시 진양호로115번길 32 (평거동),2005-10-24,유치원,경상남도 진주시 진양호로115번길 32 (평거동),35.1702893,128.0509178
5179,가좌그린빌주공아파트 - ③ 108동 앞,,경상남도 진주시 내동로348번길 10 (가좌동 가좌그린빌주공아파트),2005-12-15,주택단지,경상남도 진주시 내동로348번길 10 (가좌동 가좌그린빌주공아파트),35.1488692,128.1014287
6260,가좌그린빌주공아파트 - ② 107동 앞,,경상남도 진주시 내동로348번길 10 (가좌동 가좌그린빌주공아파트),2005-12-15,주택단지,경상남도 진주시 내동로348번길 10 (가좌동 가좌그린빌주공아파트),35.1488692,128.1014287
6261,가좌그린빌주공아파트 - ④ 110동 앞,,경상남도 진주시 내동로348번길 10 (가좌동 가좌그린빌주공아파트),2005-12-15,주택단지,경상남도 진주시 내동로348번길 10 (가좌동 가좌그린빌주공아파트),35.1488692,128.1014287
6262,가좌그린빌주공아파트 - ⑤ 114동 앞,,경상남도 진주시 내동로348번길 10 (가좌동 가좌그린빌주공아파트),2005-12-15,주택단지,경상남도 진주시 내동로348번길 10 (가좌동 가좌그린빌주공아파트),35.1488692,128.1014287
6867,가좌그린빌주공아파트 - ① 103동앞,,경상남도 진주시 내동로348번길 10 (가좌동 가좌그린빌주공아파트),2005-12-15,주택단지,경상남도 진주시 내동로348번길 10 (가좌동 가좌그린빌주공아파트),35.1488692,128.1014287
7405,가좌그린빌주공아파트 - ⑥ 관리사무소 뒤,,경상남도 진주시 내동로348번길 10 (가좌동 가좌그린빌주공아파트),2005-12-15,주택단지,경상남도 진주시 내동로348번길 10 (가좌동 가좌그린빌주공아파트),35.1488692,128.1014287
6224,가호10공원 어린이놀이시설,,경상남도 진주시 내동로348번길 10 (가좌동 가좌그린빌주공아파트),2006-01-01,도시공원,경상남도 진주시 내동로348번길 10 (가좌동 가좌그린빌주공아파트),35.1488692,128.1014287
24302,초전공원 어린이놀이시설,경남 진주시 초전동 1583-38,경상남도 진주시 남강로 1655 (초전동),2006-01-01,도시공원,경상남도 진주시 남강로 1655 (초전동),35.2088845,128.1250552
500125,가좌초등학교 어린이놀이시설,,경상남도 진주시 내동로348번길 17 (가좌동),2006-02-24,학교,경상남도 진주시 내동로348번길 17 (가좌동),35.1494881,128.1033158
5134,즐거운어린이집 놀이시설,경남 진주시 상봉동동 880-6,경상남도 진주시 의병로 160 (상봉동),2006-05-08,어린이집,경상남도 진주시 의병로 160 (상봉동),35.2015427,128.0761135
500586,숲속나라유치원 어린이놀이시설,,경상남도 진주시 선학산길 109 (하대동),2006-06-01,유치원,경상남도 진주시 선학산길 109 (하대동),35.1888905,128.1154273
5118,평거8공원 어린이놀이시설,,경상남도 진주시 진양호로125번길 38-23 (평거동),2006-11-01,도시공원,경상남도 진주시 진양호로125번길 38-23 (평거동),35.1709708,128.0507831
5170,들말대경아파트 - ① 108동 옆,,경상남도 진주시 석갑로53번길 10 (평거동 들말대경아파트),2006-11-01,주택단지,경상남도 진주시 석갑로53번길 10 (평거동 들말대경아파트),35.1762757,128.0635626
5171,들말대경아파트 - ② 102동 옆,,경상남도 진주시 석갑로53번길 10 (평거동 들말대경아파트),2006-11-01,주택단지,경상남도 진주시 석갑로53번길 10 (평거동 들말대경아파트),35.1762757,128.0635626
500882,마루유치원 어린이놀이시설,,경상남도 진주시 나불로21번길 106 (이현동),2006-11-01,유치원,경상남도 진주시 나불로21번길 106 (이현동),35.2023761,128.0474858
24043,진주기독육아원 놀이터,,경상남도 진주시 진양호로145번길 11-3 (평거동),2006-11-09,아동복지시설,경상남도 진주시 진양호로145번길 11-3 (평거동),35.1704346,128.0542125
539024,엔젤유치원 어린이놀이시설,,경상남도 진주시 금산면 금산순환로56번길 8,2006-11-15,유치원,경상남도 진주시 금산면 금산순환로56번길 8,35.2187075,128.1497883
500574,한국국제대학교부설유치원 어린이놀이시설,,경상남도 진주시 남강로373번길 12 (평거동),2006-12-01,유치원,경상남도 진주시 남강로373번길 12 (평거동),35.1728138,128.0673787
500576,리라자연과학유치원 어린이놀이시설,,경상남도 진주시 금산면 송백로 397,2006-12-05,유치원,경상남도 진주시 금산면 송백로 397,35.2047894,128.1341812
12503,정다운숲속어린이집 놀이시설,경남 진주시 이현동 365-2,경상남도 진주시 서장대로185번길 15 (이현동),2006-12-11,어린이집,경상남도 진주시 서장대로185번길 15 (이현동),35.1891046,128.0560408
5217,평거1차현대아파트,,경상남도 진주시 평거로115번길 5 (신안동 평거1차현대아파트),2007-02-01,주택단지,경상남도 진주시 평거로115번길 5 (신안동 평거1차현대아파트),35.1801988,128.0681049
5220,상평대림아파트,,경상남도 진주시 남강로 951 (상평동 대림아파트),2007-02-01,주택단지,경상남도 진주시 남강로 951 (상평동 대림아파트),35.1743346,128.1004125
5196,태완노블리안아파트,,경상남도 진주시 일반성면 공치고개길 34 (태완노블리안아파트),2007-03-26,주택단지,경상남도 진주시 일반성면 공치고개길 34 (태완노블리안아파트),35.1726596,128.286275
5184,진주푸르지오2단지아파트 어린이놀이터,,경상남도 진주시 금산면 덕의길 11 (진주푸르지오2단지),2007-05-23,주택단지,경상남도 진주시 금산면 덕의길 11 (진주푸르지오2단지),35.2178125,128.1473461
6864,진주금산푸르지오1단지아파트 - ① 106동 앞,,경상남도 진주시 금산면 덕의길 15 (진주푸르지오1단지),2007-06-01,주택단지,경상남도 진주시 금산면 덕의길 15 (진주푸르지오1단지),35.2189889,128.1460901
6865,진주금산푸르지오1단지아파트 - ② 105동 옆,,경상남도 진주시 금산면 덕의길 15 (진주푸르지오1단지),2007-06-01,주택단지,경상남도 진주시 금산면 덕의길 15 (진주푸르지오1단지),35.2189889,128.1460901
500875,아람유치원 어린이놀이시설,,경상남도 진주시 서장대로177번길 6-4 (이현동),2007-07-01,유치원,경상남도 진주시 서장대로177번길 6-4 (이현동),35.1880901,128.0566219
529713,이반성초등학교병설유치원 어린이놀이시설,,경상남도 진주시 이반성면 오봉산로 762,2007-09-14,유치원,경상남도 진주시 이반성면 오봉산로 762,35.1731664,128.3293083
500590,에덴유치원 어린이놀이시설,,경상남도 진주시 하대로26번길 33 (하대동),2007-10-01,유치원,경상남도 진주시 하대로26번길 33 (하대동),35.1951518,128.1129344
521296,제일풍경채아파트,,경상남도 진주시 가좌안골길21번길 5 (가좌동 가좌제일풍경채),2007-11-28,주택단지,경상남도 진주시 가좌안골길21번길 5 (가좌동 가좌제일풍경채),35.1540984,128.1081824
12502,자연아이어린이집 놀이시설,경남 진주시 신안동 31-5번지,경상남도 진주시 신안로34번길 11-1 (신안동),2008-01-14,어린이집,경상남도 진주시 신안로34번길 11-1 (신안동),35.1821455,128.071439
23464,이현하이클레스웰가아파트 어린이놀이터1,,경상남도 진주시 진주대로 1317 (이현동 이현하이클래스웰가아파트),2008-04-21,주택단지,경상남도 진주시 진주대로 1317 (이현동 이현하이클래스웰가아파트),35.1939948,128.0573503
23465,이현하이클레스웰가아파트 어린이놀이터2,,경상남도 진주시 진주대로 1317 (이현동 이현하이클래스웰가아파트),2008-04-21,주택단지,경상남도 진주시 진주대로 1317 (이현동 이현하이클래스웰가아파트),35.1939948,128.0573503
23466,이현하이클레스웰가아파트 어린이놀이터3,,경상남도 진주시 진주대로 1317 (이현동 이현하이클래스웰가아파트),2008-04-21,주택단지,경상남도 진주시 진주대로 1317 (이현동 이현하이클래스웰가아파트),35.1939948,128.0573503
24531,진주현대금빛마을 - ③107동 앞,,경상남도 진주시 집현면 진산로 675 (현대아파트),2008-07-04,주택단지,경상남도 진주시 집현면 진산로 675 (현대아파트),35.2384894,128.0902755
25561,금산 e-편한세상 어린이놀이터1,,경상남도 진주시 금산면 금산순환로80번길 8,2008-09-23,주택단지,경상남도 진주시 금산면 금산순환로80번길 8,35.2202711,128.1513976
25562,금산 e-편한세상 어린이놀이터2,,경상남도 진주시 금산면 금산순환로80번길 8,2008-09-23,주택단지,경상남도 진주시 금산면 금산순환로80번길 8,35.2202711,128.1513976
12488,키즈드림파인슐레어린이집 놀이시설,경남 진주시 진성면 가진리 371번지,경상남도 진주시 진성면 진의로257번길 25,2008-12-10,어린이집,경상남도 진주시 진성면 진의로257번길 25,35.2057772,128.2193747
6873,상평동일스위트 - ② 105동 뒤,,경상남도 진주시 공단로 30 (상평동 상평동 동일스위트아파트),2008-12-19,주택단지,경상남도 진주시 공단로 30 (상평동 상평동 동일스위트아파트),35.1744507,128.102755
7170,상평동일스위트 - ① 관리실 옆,,경상남도 진주시 공단로 30 (상평동 상평동 동일스위트아파트),2008-12-19,주택단지,경상남도 진주시 공단로 30 (상평동 상평동 동일스위트아파트),35.1744507,128.102755
29130,아이비킹덤어린이집,경남 진주시 주약동 721,경상남도 진주시 주약약골길 86 (주약동),2008-12-22,어린이집,경상남도 진주시 주약약골길 86 (주약동),35.1709819,128.0820985
29791,경남 진주 두산위브 어린이놀이터(1),,경상남도 진주시 금산면 중장로154번길 49 (진주금산두산위브아파트),2009-01-06,주택단지,경상남도 진주시 금산면 중장로154번길 49 (진주금산두산위브아파트),35.2206153,128.1487444
29792,경남 진주 두산위브 어린이놀이터(2),,경상남도 진주시 금산면 중장로154번길 49 (진주금산두산위브아파트),2009-01-06,주택단지,경상남도 진주시 금산면 중장로154번길 49 (진주금산두산위브아파트),35.2206153,128.1487444
29793,경남 진주 두산위브 어린이놀이터(3),,경상남도 진주시 금산면 중장로154번길 49 (진주금산두산위브아파트),2009-01-06,주택단지,경상남도 진주시 금산면 중장로154번길 49 (진주금산두산위브아파트),35.2206153,128.1487444
29936,신안주공2차 211동 옆 놀이터,,경상남도 진주시 신안들말길 47 (신안동 주공2차아파트),2009-01-21,주택단지,경상남도 진주시 신안들말길 47 (신안동 주공2차아파트),35.1790528,128.0665505
6234,산새소리어린이집 놀이시설,경남 진주시금산면 장사리 641-1,경상남도 진주시 금산면 금산순환로 168-1,2009-03-04,어린이집,경상남도 진주시 금산면 금산순환로 168-1,35.2276954,128.1520807
12497,아이린어린이집 놀이시설,경남 진주시 상봉동 742-1번지,경상남도 진주시 상봉대룡길21번길 10 (상봉동),2009-03-04,어린이집,경상남도 진주시 상봉대룡길21번길 10 (상봉동),35.2017887,128.0674413
30813,대곡어린이집 놀이터,경남 진주시 대곡면 광석리328-4번지,경상남도 진주시 대곡면 진의로1079번길 9,2009-04-10,어린이집,경상남도 진주시 대곡면 진의로1079번길 9,35.2629986,128.1682402
33632,옥봉어린이집 놀이터,경남 진주시 옥봉동389번지,경상남도 진주시 향교로120번길 9-6 (옥봉동),2009-04-10,어린이집,경상남도 진주시 향교로120번길 9-6 (옥봉동),35.1957159,128.0913445
33638,지수어린이집 놀이터,경남 진주시 지수면 승산리115-2번지,경상남도 진주시 지수면 지수로 443,2009-04-10,어린이집,경상남도 진주시 지수면 지수로 443,35.2312922,128.2687669
7306,이현1어린이공원 어린이놀이시설,,경상남도 진주시 진주대로 1317-18 (이현동),2009-04-20,도시공원,경상남도 진주시 진주대로 1317-18 (이현동),35.1938361,128.0605082
24296,이현1근린공원 어린이놀이시설,,경상남도 진주시 진주대로 1317 (이현동 이현하이클래스웰가아파트)113동뒤편,2009-04-20,도시공원,경상남도 진주시 진주대로 1317 (이현동 이현하이클래스웰가아파트)113동뒤편,35.1939948,128.0573503
12510,썬키즈스쿨어린이집 놀이터,,경상남도 진주시 금산면 금산순환로 536-7,2009-04-30,어린이집,경상남도 진주시 금산면 금산순환로 536-7,35.2189396,128.1593083
33696,강주어린이집 놀이터,경남 진주시 정촌면 예하리 199-2,경상남도 진주시 정촌면 강주길66번길 7,2009-05-11,어린이집,경상남도 진주시 정촌면 강주길66번길 7,35.1130933,128.0993038
7308,프뢰벨자연과학어린이집 놀이시설,경남 진주시 명석면 우수리 새마을120번지,경상남도 진주시 명석면 나불로356번길 2 새마을,2009-06-05,어린이집,경상남도 진주시 명석면 나불로356번길 2 새마을,35.2172528,128.0343693
6242,영지 어린이집 놀이시설,경남 진주시 이현동 14-7,경상남도 진주시 평거로 294 경상남도 진주시 평거로 294 경상남도 진주시 평거로 294 (이현동),2009-06-30,어린이집,경상남도 진주시 평거로 294 경상남도 진주시 평거로 294 경상남도 진주시 평거로 294 (이현동),35.1932495,128.061922
36868,초전흥한아파트어린이 놀이터 1,,경상남도 진주시 초전남로 36 (초전동),2009-07-20,주택단지,경상남도 진주시 초전남로 36 (초전동),35.1996432,128.1140132
36871,초전흥한아파트어린이놀이터2,,경상남도 진주시 초전남로 36 (초전동),2009-07-20,주택단지,경상남도 진주시 초전남로 36 (초전동),35.1996432,128.1140132
36508,남광하우스토리아파트 놀이터,,경상남도 진주시 진양호로 227 (평거동),2009-08-06,주택단지,경상남도 진주시 진양호로 227 (평거동),35.1746266,128.0610337
12506,큰나무어린이집 놀이시설,경남 진주시 상대2동 311-88,경상남도 진주시 대신로195번길 14 (상대동),2009-10-05,어린이집,경상남도 진주시 대신로195번길 14 (상대동),35.1779587,128.116228
37550,초전현대아파트101동 놀이터,,경상남도 진주시 초전남로 60 (초전동 현대아파트),2009-10-26,주택단지,경상남도 진주시 초전남로 60 (초전동 현대아파트),35.2017,128.1139344
42123,초전현대아파트201동 놀이터,,경상남도 진주시 대신로457번길 19 (초전동),2009-10-26,주택단지,경상남도 진주시 대신로457번길 19 (초전동),35.2011648,128.1142683
514673,삼환나우빌아파트 101동 놀이터,,경상남도 진주시 진주대로829번길 21 (주약동 삼환나우빌),2009-10-29,주택단지,경상남도 진주시 진주대로829번길 21 (주약동 삼환나우빌),35.1740763,128.0915
6859,혜림어린이집 놀이시설,경남 진주시내동면 신율리 251-47,경상남도 진주시 내동면 신율길 13,2009-11-10,어린이집,경상남도 진주시 내동면 신율길 13,35.1473729,128.0939941
31652,진주가좌 주공아파트 101동 앞 놀이터,,경상남도 진주시 가호로 26 (가좌동 가좌주공아파트),2009-11-12,주택단지,경상남도 진주시 가호로 26 (가좌동 가좌주공아파트),35.1621526,128.109842
41854,진주가좌 주공아파트 101동 옆 놀이터,,경상남도 진주시 가호로 26 (가좌동 가좌주공아파트),2009-11-12,주택단지,경상남도 진주시 가호로 26 (가좌동 가좌주공아파트),35.1621526,128.109842
41855,진주평거주공2차아파트 어린이놀이터,,경상남도 진주시 진양호로125번길 6 (평거동 평거주공2아파트),2009-11-12,주택단지,경상남도 진주시 진양호로125번길 6 (평거동 평거주공2아파트),35.1692246,128.0537645
500581,세종유치원 어린이놀이시설,,경상남도 진주시 주약약골길75번길 14 (주약동),2009-11-17,유치원,경상남도 진주시 주약약골길75번길 14 (주약동),35.1683244,128.0828413
6239,리븐스바움어린이집 놀이시설,,경상남도 진주시 진양호로97번길 19-9 (평거동),2009-11-19,어린이집,경상남도 진주시 진양호로97번길 19-9 (평거동),35.1687246,128.049533
6247,키튼아일랜드어린이집 놀이시설,경남 진주시 판문동 66-4번지,경상남도 진주시 서장대로61번길 7 (판문동),2009-11-19,어린이집,경상남도 진주시 서장대로61번길 7 (판문동),35.1875537,128.0451639
514774,초전푸르지오 1단지 102동앞,,경상남도 진주시 초장로14번길 27 (초전동 진주초전푸르지오1단지),2009-11-19,주택단지,경상남도 진주시 초장로14번길 27 (초전동 진주초전푸르지오1단지),35.204723,128.1128206
514777,초전푸르지오 1단지 103동앞,,경상남도 진주시 초장로14번길 27 (초전동 진주초전푸르지오1단지),2009-11-19,주택단지,경상남도 진주시 초장로14번길 27 (초전동 진주초전푸르지오1단지),35.204723,128.1128206
514780,초전푸르지오 1단지 노인정뒤,,경상남도 진주시 초장로14번길 27 (초전동 진주초전푸르지오1단지),2009-11-19,주택단지,경상남도 진주시 초장로14번길 27 (초전동 진주초전푸르지오1단지),35.204723,128.1128206
41008,진흥아파트 어린이놀이터,,경상남도 진주시 금산면 금산로 22 (진주금산 진흥 더 루벤스),2009-11-27,주택단지,경상남도 진주시 금산면 금산로 22 (진주금산 진흥 더 루벤스),35.2135141,128.1396188
41744,느티나무아파트 102동앞 놀이터,,경상남도 진주시 금산면 중천로 74 (느티나무아파트),2009-11-27,주택단지,경상남도 진주시 금산면 중천로 74 (느티나무아파트),35.217906,128.144699
41745,느티나무아파트 106동앞 놀이터(조합그네매트만 검사),,경상남도 진주시 금산면 중천로 74 (느티나무아파트),2009-11-27,주택단지,경상남도 진주시 금산면 중천로 74 (느티나무아파트),35.217906,128.144699
514829,비아이에스어린이집 놀이터,경남 진주시 평거동422-3,경상남도 진주시 진양호로125번길 22-28 (평거동),2009-12-08,어린이집,경상남도 진주시 진양호로125번길 22-28 (평거동),35.1724904,128.0513995
521294,상봉화인아파트,,경상남도 진주시 상봉대룡길 18 (상봉동 화인아파트),2010-01-01,주택단지,경상남도 진주시 상봉대룡길 18 (상봉동 화인아파트),35.201658,128.0690007
521298,한보힐타워맨션,,경상남도 진주시 상대로143번길 11-2 (하대동 한보힐타워맨션),2010-01-01,주택단지,경상남도 진주시 상대로143번길 11-2 (하대동 한보힐타워맨션),35.1860689,128.1272141
23962,옥봉대림아파트 놀이터,,경상남도 진주시 향교로115번길 10-1 (옥봉동),2010-01-13,주택단지,경상남도 진주시 향교로115번길 10-1 (옥봉동),35.195893,128.0933781
40142,초전2공원 어린이놀이시설,,경상남도 진주시 초전북로 71 (초전동)건물뒤편,2010-01-14,도시공원,경상남도 진주시 초전북로 71 (초전동)건물뒤편,35.2088048,128.1145833
40143,초전1공원 어린이놀이시설,,경상남도 진주시 초장로14번길 14 (초전동)옆 일대,2010-01-14,도시공원,경상남도 진주시 초장로14번길 14 (초전동)옆 일대,35.2046263,128.1145375
40144,초전택지근린공원 어린이놀이시설,,경상남도 진주시 초전북로62번길 9 (초전동)학교옆 일대,2010-01-14,도시공원,경상남도 진주시 초전북로62번길 9 (초전동)학교옆 일대,35.2076668,128.1145124
500625,참빛유치원 어린이놀이시설,,경상남도 진주시 모덕로117번길 6 (상대동),2010-01-18,유치원,경상남도 진주시 모덕로117번길 6 (상대동),35.1835961,128.1101833
515374,초전2차 푸르지오아파트1 놀이터,,경상남도 진주시 초장로14번길 29 (초전동 진주초전푸르지오2단지),2010-02-02,주택단지,경상남도 진주시 초장로14번길 29 (초전동 진주초전푸르지오2단지),35.2074966,128.1115684
515382,초전2차 푸르지오아파트2 놀이터,,경상남도 진주시 초장로14번길 29 (초전동 진주초전푸르지오2단지),2010-02-02,주택단지,경상남도 진주시 초장로14번길 29 (초전동 진주초전푸르지오2단지),35.2074966,128.1115684
515398,초전2차 푸르지오아파트 유아놀이터,,경상남도 진주시 초장로14번길 29 (초전동 진주초전푸르지오2단지),2010-02-02,주택단지,경상남도 진주시 초장로14번길 29 (초전동 진주초전푸르지오2단지),35.2074966,128.1115684
7168,현대어린이집 놀이터,경남 진주시 신안동 20 현대아파트 관리동,경상남도 진주시 신안로 72 (신안동),2010-02-04,어린이집,경상남도 진주시 신안로 72 (신안동),35.184724,128.07082
27678,신안흥한2차아파트 201동앞 놀이터,,경상남도 진주시 평거로139번길 11-3 (신안동 신안흥한타운2차아파트),2010-02-23,주택단지,경상남도 진주시 평거로139번길 11-3 (신안동 신안흥한타운2차아파트),35.1810972,128.0686739
27311,휴먼빌아파트 101동 피로티,,경상남도 진주시 내동면 순환로 425-61 (남강휴먼빌아파트),2010-03-30,주택단지,경상남도 진주시 내동면 순환로 425-61 (남강휴먼빌아파트),35.16264,128.0659994
27313,휴먼빌아파트 유아놀이터,,경상남도 진주시 내동면 순환로 425-61 (남강휴먼빌아파트),2010-03-30,주택단지,경상남도 진주시 내동면 순환로 425-61 (남강휴먼빌아파트),35.16264,128.0659994
27314,휴먼빌아파트 놀이터3,,경상남도 진주시 내동면 순환로 425-61 (남강휴먼빌아파트),2010-03-30,주택단지,경상남도 진주시 내동면 순환로 425-61 (남강휴먼빌아파트),35.16264,128.0659994
27315,휴먼빌아파트 놀이터1,,경상남도 진주시 내동면 순환로 425-61 (남강휴먼빌아파트),2010-03-30,주택단지,경상남도 진주시 내동면 순환로 425-61 (남강휴먼빌아파트),35.16264,128.0659994
32113,휴먼빌아파트 놀이터2,,경상남도 진주시 내동면 순환로 425-61 (남강휴먼빌아파트),2010-03-30,주택단지,경상남도 진주시 내동면 순환로 425-61 (남강휴먼빌아파트),35.16264,128.0659994
5111,가호4공원 어린이놀이시설,경남 진주시 가좌동 주공2차684-2,경상남도 진주시 가호로 26 (가좌동 가좌주공2아파트),2010-04-01,도시공원,경상남도 진주시 가호로 26 (가좌동 가좌주공2아파트),35.1621526,128.109842
12472,평거5공원 어린이놀이시설,,경상남도 진주시 신평공원길 89 (신안동),2010-04-01,도시공원,경상남도 진주시 신평공원길 89 (신안동),35.1761566,128.0696274
23304,가좌주공2차아파트 1-놀이터(201동옆),,경상남도 진주시 가호로 26 (가좌동 가좌주공아파트),2010-04-29,주택단지,경상남도 진주시 가호로 26 (가좌동 가좌주공아파트),35.1621526,128.109842
12501,은혜어린이집 놀이시설,경남 진주시 이반성면 용암리 287-2,경상남도 진주시 이반성면 오봉산로 739,2010-04-30,어린이집,경상남도 진주시 이반성면 오봉산로 739,35.1710421,128.3273651
28400,평거초등학교 어린이놀이시설,,경상남도 진주시 진양호로51번길 16 (판문동),2010-04-30,학교,경상남도 진주시 진양호로51번길 16 (판문동),35.1693369,128.0452225
516224,키즈아일랜드어린이집,경남 진주시 금산면 장사리585-8,경상남도 진주시 금산면 금산순환로 532,2010-05-17,어린이집,경상남도 진주시 금산면 금산순환로 532,35.2188391,128.1601068
27500,진주코아루 아파트 어린이놀이터2,,경상남도 진주시 문산읍 월아산로1117번길 5 (진주문산코아루아파트),2010-05-25,주택단지,경상남도 진주시 문산읍 월아산로1117번길 5 (진주문산코아루아파트),35.1698201,128.1607242
32213,진주코아루 아파트 어린이놀이터1,,경상남도 진주시 문산읍 월아산로1117번길 5 (진주문산코아루아파트),2010-05-25,주택단지,경상남도 진주시 문산읍 월아산로1117번길 5 (진주문산코아루아파트),35.1698201,128.1607242
6229,반성어린이집 놀이시설,경남 진주시 일반성면 창촌리 92번지,경상남도 진주시 일반성면 동부로1993번길 27,2010-05-28,어린이집,경상남도 진주시 일반성면 동부로1993번길 27,35.1712244,128.282207
516298,삼전프라자아파트 놀이터,,경상남도 진주시 도동로 251 (하대동),2010-06-11,주택단지,경상남도 진주시 도동로 251 (하대동),35.1927184,128.1212398
12509,한솔어린이집 놀이시설,경남 진주시 이현동 705-13,경상남도 진주시 나불로8번길 33 (이현동),2010-06-29,어린이집,경상남도 진주시 나불로8번길 33 (이현동),35.2000345,128.0561111
38871,진주 상평어린이집 놀이터,경남 진주 상평동 208-7,경상남도 진주시 돗골로25번길 2 (상평동),2010-06-30,어린이집,경상남도 진주시 돗골로25번길 2 (상평동),35.1706219,128.112596
38872,진주시 무지개동산 놀이터,,진주시 내동면 삼계로 430,2010-06-30,도시공원,진주시 내동면 삼계로 430,35.1592404,128.0321082
30786,문산어린이집 놀이터,경상남도 진주시 문산읍 삼곡리 1182-95,경상남도 진주시 문산읍 월아산로 999-12,2010-07-23,어린이집,경상남도 진주시 문산읍 월아산로 999-12,35.1610692,128.1632968
37946,푸른마을아파트 놀이터,,경상남도 진주시 상봉대룡길 37 (상봉동 에스디푸른마을),2010-07-23,주택단지,경상남도 진주시 상봉대룡길 37 (상봉동 에스디푸른마을),35.2027263,128.0672625
39375,상봉어린이집 놀이터,경상남도 진주시 상봉동 1075-2,경상남도 진주시 북장대로85번길 11 (상봉동),2010-07-23,어린이집,경상남도 진주시 북장대로85번길 11 (상봉동),35.1973305,128.0717367
6228,민들레재능어린이집 놀이시설,경남 진주시 상대동 177-13,경상남도 진주시 대신로308번길 21-2 (상대동),2010-07-26,어린이집,경상남도 진주시 대신로308번길 21-2 (상대동),35.1881119,128.1192729
517216,평거6공원 어린이놀이시설,,경상남도 진주시 신안들말길 47 (신안동 주공2차아파트),2010-07-26,도시공원,경상남도 진주시 신안들말길 47 (신안동 주공2차아파트),35.1790528,128.0665505
6225,문산공원 어린이놀이시설,,경상남도 진주시 문산읍 동부로588번길 14-5,2010-08-01,도시공원,경상남도 진주시 문산읍 동부로588번길 14-5,35.1663924,128.1654971
39746,들말흥한타운 (101동) 놀이터,,경상남도 진주시 석갑로 45 (평거동 들말흥한아파트),2010-08-18,주택단지,경상남도 진주시 석갑로 45 (평거동 들말흥한아파트),35.1759286,128.0651785
39747,들말흥한타운 (105동) 놀이터,,경상남도 진주시 석갑로 45 (평거동 들말흥한아파트),2010-08-18,주택단지,경상남도 진주시 석갑로 45 (평거동 들말흥한아파트),35.1759286,128.0651785
39749,들말흥한타운 (113동) 놀이터,,경상남도 진주시 석갑로 45 (평거동 들말흥한아파트),2010-08-18,주택단지,경상남도 진주시 석갑로 45 (평거동 들말흥한아파트),35.1759286,128.0651785
42273,들말흥한타운 (106동) 놀이터,,경상남도 진주시 석갑로 45 (평거동 들말흥한아파트),2010-08-18,주택단지,경상남도 진주시 석갑로 45 (평거동 들말흥한아파트),35.1759286,128.0651785
39543,진주 문산파란채 아파트 104동 앞 놀이터,,경상남도 진주시 문산읍 월아산로1048번길 15 (진주문산파란채아파트),2010-08-26,주택단지,경상남도 진주시 문산읍 월아산로1048번길 15 (진주문산파란채아파트),35.1655557,128.1657026
39544,진주 문산파란채 아파트 103동 앞 놀이터,,경상남도 진주시 문산읍 월아산로1048번길 15 (진주문산파란채아파트),2010-08-26,주택단지,경상남도 진주시 문산읍 월아산로1048번길 15 (진주문산파란채아파트),35.1655557,128.1657026
5185,망경동신아파트,,경상남도 진주시 망진산길 32 (망경동 망경동신아파트),2010-10-11,주택단지,경상남도 진주시 망진산길 32 (망경동 망경동신아파트),35.1800457,128.0813322
6243,원광어린이집 놀이시설,경남 진주시 문산읍 소문리 207,경상남도 진주시 문산읍 소문길17번길 17,2010-10-14,어린이집,경상남도 진주시 문산읍 소문길17번길 17,35.1720791,128.1638135
35754,평거 2차 현대아파트 놀이터,,경상남도 진주시 신안들말길 58 (신안동 평거2차현대아파트),2010-10-21,주택단지,경상남도 진주시 신안들말길 58 (신안동 평거2차현대아파트),35.1806513,128.0667407
35153,대화리네르빌아파트 놀이터,,경상남도 진주시 진주대로 652-15 (가좌동 가좌 대화리네르빌),2010-11-11,주택단지,경상남도 진주시 진주대로 652-15 (가좌동 가좌 대화리네르빌),35.1650197,128.1070937
7309,한마음어린이집 놀이시설,경남 진주시 하대2동 136-4,경상남도 진주시 상대로69번길 16 (하대동),2010-11-16,어린이집,경상남도 진주시 상대로69번길 16 (하대동),35.1859481,128.1198588
6854,명석어린이집,경남 진주시 명석면 관지리 645-2,경상남도 진주시 명석면 광제산로 450-4,2010-11-25,어린이집,경상남도 진주시 명석면 광제산로 450-4,35.2536451,128.0413235
518362,한들어린이집,,경상남도 진주시 평거로139번길 11-5 (신안동)203동 101호,2010-11-26,어린이집,경상남도 진주시 평거로139번길 11-5 (신안동)203동 101호,35.1812047,128.0681758
518395,하대쌍용아파트,,경상남도 진주시 말티고개로108번길 5 (하대동 진주쌍용아파트),2010-11-30,주택단지,경상남도 진주시 말티고개로108번길 5 (하대동 진주쌍용아파트),35.1960633,128.1135993
35889,진양어린이집 놀이터,경남 진주시 집현면 봉강리 334-1,경상남도 진주시 집현면 진산로703번길 19-11,2010-12-16,어린이집,경상남도 진주시 집현면 진산로703번길 19-11,35.2387047,128.0861191
6241,영리더스쿨어린이집 놀이시설,경남 진주시내동면 신율리 520-1,경상남도 진주시 내동면 내동로219번길 15-22,2010-12-22,어린이집,경상남도 진주시 내동면 내동로219번길 15-22,35.1544052,128.0895386
12486,궁전키즈스쿨어린이집 놀이시설,경남 진주시 하대동 713-8번지,경상남도 진주시 선학산길59번길 22-17 (하대동),2011-01-17,어린이집,경상남도 진주시 선학산길59번길 22-17 (하대동),35.1891833,128.1083958
5140,햇빛놀이스쿨어린이집 놀이시설,,경상남도 진주시 초전남로65번길 16 (초전동)초전동 786,2011-01-24,어린이집,경상남도 진주시 초전남로65번길 16 (초전동)초전동 786,35.201803,128.1117031
519790,토마토어린이집 놀이터,경남 진주시 평거동386-27번지,경상남도 진주시 진양호로143번길 12 (평거동),2011-01-27,어린이집,경상남도 진주시 진양호로143번길 12 (평거동),35.1700262,128.0545884
500563,초전초등학교 어린이놀이시설,,경상남도 진주시 초전북로62번길 9 (초전동),2011-02-01,학교,경상남도 진주시 초전북로62번길 9 (초전동),35.2076668,128.1145124
519389,좋은나무어린이집,경남 진주시 하대동596-4,경상남도 진주시 하대로34번길 14 (하대동),2011-02-01,어린이집,경상남도 진주시 하대로34번길 14 (하대동),35.1928183,128.1141428
500533,정촌초등학교 어린이놀이시설,,경상남도 진주시 동부로 11 (가좌동),2011-03-03,학교,경상남도 진주시 동부로 11 (가좌동),35.1603638,128.1085918
5136,차일드어린이집 놀이시설,경남 진주시 상평동 219-10,경상남도 진주시 솔밭로92번길 19-4 (상평동),2011-03-07,어린이집,경상남도 진주시 솔밭로92번길 19-4 (상평동),35.1777015,128.109268
7167,꽃동산어린이집 놀이시설,경남 진주시 평거동 106-1번지,경상남도 진주시 순환로573번길 20 (평거동),2011-03-07,어린이집,경상남도 진주시 순환로573번길 20 (평거동),35.1735047,128.0573474
7166,근로자가족복지회관어린이집 놀이터,경남 진주시 상대2동 33-106번지,경상남도 진주시 동진로263번길 14 (상대동),2011-03-08,어린이집,경상남도 진주시 동진로263번길 14 (상대동),35.1812368,128.1211106
519757,녹원어린이집 놀이터 1,경남 진주시 주약동572-2,경상남도 진주시 주약약골길75번길 25 (주약동),2011-03-21,어린이집,경상남도 진주시 주약약골길75번길 25 (주약동),35.1676979,128.0839145
550867,녹원어린이집 놀이터2,,경상남도 진주시 주약약골길75번길 25 (주약동)녹원어린이집 (주약동 572-2),2011-03-21,어린이집,경상남도 진주시 주약약골길75번길 25 (주약동)녹원어린이집 (주약동 572-2),35.1676979,128.0839145
6233,정원어린이집 놀이시설,경남 진주시 호탄동 602-11번지,경상남도 진주시 가호로61번길 4 (호탄동),2011-03-29,어린이집,경상남도 진주시 가호로61번길 4 (호탄동),35.1644604,128.113057
6851,경남과학기술대학교부설어린이집 놀이시설,경남 진주시 칠암동 150번지 산학협력관1층,경상남도 진주시 동진로 33 (칠암동),2011-03-29,어린이집,경상남도 진주시 동진로 33 (칠암동),35.1810114,128.0939071
5120,평거12공원 어린이놀이시설,,경상남도 진주시 신평공원길47번길 14-9 (평거동),2011-04-05,도시공원,경상남도 진주시 신평공원길47번길 14-9 (평거동),35.17398,128.066921
24283,칠암어린이공원 어린이놀이시설,,경상남도 진주시 강남로189번길 27-18 (칠암동),2011-04-05,도시공원,경상남도 진주시 강남로189번길 27-18 (칠암동),35.1838654,128.0929734
33631,수정어린이공원 어린이놀이시설,,경상남도 진주시 촉석로217번길 20 (수정동),2011-04-05,도시공원,경상남도 진주시 촉석로217번길 20 (수정동),35.1973009,128.0851359
12469,가호3공원 어린이놀이시설,,경상남도 진주시 가호로 28 (가좌동 가좌주공아파트),2011-05-02,도시공원,경상남도 진주시 가호로 28 (가좌동 가좌주공아파트),35.1632277,128.1094798
12504,참사랑 어린이집 놀이시설,경남 진주시 평거동 716-3번지(8/3),경상남도 진주시 진양호로115번길 29-1 8통 3반 (평거동),2011-05-09,어린이집,경상남도 진주시 진양호로115번길 29-1 8통 3반 (평거동),35.1699518,128.0505817
5115,평거2어린이공원 어린이놀이시설,,경상남도 진주시 진양호로111번길 24 (평거동),2011-06-07,도시공원,경상남도 진주시 진양호로111번길 24 (평거동),35.1693428,128.0508521
506508,평거1어린이공원 어린이놀이시설,,경상남도 진주시 진양호로125번길 27 (평거동),2011-06-07,도시공원,경상남도 진주시 진양호로125번길 27 (평거동),35.1700679,128.0519987
6248,푸른꿈어린이집 놀이시설,경남 진주시금산면 장사리 524-10,경상남도 진주시 금산면 금산순환로 582,2011-06-28,어린이집,경상남도 진주시 금산면 금산순환로 582,35.2162911,128.1559059
12507,푸른재능어린이집 놀이터,경남 진주시 상봉동 896-6,경상남도 진주시 비봉로 108 (상봉동),2011-06-30,어린이집,경상남도 진주시 비봉로 108 (상봉동),35.2001199,128.0788433
12495,솔로몬영재교육어린이집 놀이시설,,경상남도 진주시 북장대로64번길 7 (상봉동),2011-07-19,어린이집,경상남도 진주시 북장대로64번길 7 (상봉동),35.1960133,128.0740369
5108,상평동동공원 어린이놀이시설,,경상남도 진주시 도동로28번길 6 (상평동),2011-08-01,도시공원,경상남도 진주시 도동로28번길 6 (상평동),35.1728166,128.1238599
528467,진주평거휴먼시아4단지 놀이터-2,,경상남도 진주시 새평거로 75 (평거동 평거휴먼시아4단지),2011-08-16,주택단지,경상남도 진주시 새평거로 75 (평거동 평거휴먼시아4단지),35.1680673,128.0550829
528460,E-VILLAGE어린이집,경남 진주시 내동면 삼계리285-2,경상남도 진주시 내동면 삼계로258번길 55,2011-08-19,어린이집,경상남도 진주시 내동면 삼계로258번길 55,35.148891,128.0385502
5112,가호6(범골이야기)공원 어린이놀이시설,,경상남도 진주시 호탄길21번길 22 (호탄동),2011-08-31,도시공원,경상남도 진주시 호탄길21번길 22 (호탄동),35.163376,128.1139271
532506,진주평거휴먼시아3단지 어린이놀이터-1,,경상남도 진주시 새평거로 111 (평거동 평거휴먼시아3단지),2011-09-01,주택단지,경상남도 진주시 새평거로 111 (평거동 평거휴먼시아3단지),35.1704321,128.0590943
532507,진주평거휴먼시아3단지 어린이놀이터-2,,경상남도 진주시 새평거로 111 (평거동 평거휴먼시아3단지),2011-09-01,주택단지,경상남도 진주시 새평거로 111 (평거동 평거휴먼시아3단지),35.1704321,128.0590943
532508,진주평거휴먼시아3단지 유아놀이터,,경상남도 진주시 새평거로 111 (평거동 평거휴먼시아3단지),2011-09-01,주택단지,경상남도 진주시 새평거로 111 (평거동 평거휴먼시아3단지),35.1704321,128.0590943
6237,수곡어린이집 놀이터,경남 진주시수곡면 효자리 469-1번지,경상남도 진주시 수곡면 곤수로898번길 16-6,2011-09-15,어린이집,경상남도 진주시 수곡면 곤수로898번길 16-6,35.1942974,127.9392597
525074,신안3주공아파트 어린이놀이터 (305동 앞),,경상남도 진주시 석갑로 58 (신안동 주공3차아파트),2011-09-20,주택단지,경상남도 진주시 석갑로 58 (신안동 주공3차아파트),35.1776221,128.0656234
525075,신안3주공아파트 어린이놀이터 (308동 앞),,경상남도 진주시 석갑로 58 (신안동 주공3차아파트),2011-09-20,주택단지,경상남도 진주시 석갑로 58 (신안동 주공3차아파트),35.1776221,128.0656234
525076,신안3주공아파트 어린이놀이터 (중앙놀이터),,경상남도 진주시 석갑로 58 (신안동 주공3차아파트),2011-09-20,주택단지,경상남도 진주시 석갑로 58 (신안동 주공3차아파트),35.1776221,128.0656234
525077,신안3주공아파트 유아놀이터,,경상남도 진주시 석갑로 58 (신안동 주공3차아파트),2011-09-20,주택단지,경상남도 진주시 석갑로 58 (신안동 주공3차아파트),35.1776221,128.0656234
528188,들말한보아파트 놀이터 (108동),,경상남도 진주시 평거로39번길 9 (평거동 들말한보타운),2011-09-21,주택단지,경상남도 진주시 평거로39번길 9 (평거동 들말한보타운),35.1735144,128.0633382
525090,진주평거휴먼시아4단지 놀이터-1,,경상남도 진주시 새평거로 75 (평거동 평거휴먼시아4단지),2011-09-28,주택단지,경상남도 진주시 새평거로 75 (평거동 평거휴먼시아4단지),35.1680673,128.0550829
525091,진주평거휴먼시아4단지 놀이터-3,,경상남도 진주시 새평거로 75 (평거동 평거휴먼시아4단지),2011-09-28,주택단지,경상남도 진주시 새평거로 75 (평거동 평거휴먼시아4단지),35.1680673,128.0550829
525092,진주평거휴먼시아4단지 유아놀이터,,경상남도 진주시 새평거로 75 (평거동 평거휴먼시아4단지),2011-09-28,주택단지,경상남도 진주시 새평거로 75 (평거동 평거휴먼시아4단지),35.1680673,128.0550829
527687,신안주공1차아파트 109동 유아놀이터,,경상남도 진주시 신안들말길 17 (신안동 주공1차아파트),2011-10-31,주택단지,경상남도 진주시 신안들말길 17 (신안동 주공1차아파트),35.1776294,128.0689262
527691,신안주공1차아파트 관리동 유아놀이터,,경상남도 진주시 신안들말길 17 (신안동 주공1차아파트),2011-10-31,주택단지,경상남도 진주시 신안들말길 17 (신안동 주공1차아파트),35.1776294,128.0689262
525889,정촌초등학교병설유치원 어린이놀이시설,,경상남도 진주시 동부로 11 (가좌동),2011-11-14,유치원,경상남도 진주시 동부로 11 (가좌동),35.1603638,128.1085918
529481,임마누엘 어린이집 놀이터,경남 진주시 평거동342,경상남도 진주시 진양호로 157 (평거동),2012-01-06,어린이집,경상남도 진주시 진양호로 157 (평거동),35.1697719,128.0561511
500626,초원유치원 어린이놀이시설,,경상남도 진주시 진산로322번길 66 (초전동),2012-01-12,유치원,경상남도 진주시 진산로322번길 66 (초전동),35.2153926,128.1100517
535596,해달별어린이집,경남 진주시 상대동194-4,,2012-02-22,어린이집,경남 진주시 상대동194-4,35.1865622,128.1152796
539240,에일린의 뜰 어린이놀이터1,,경상남도 진주시 강변길 31 (가좌동 가호 에일린의 뜰 아파트),2012-05-16,주택단지,경상남도 진주시 강변길 31 (가좌동 가호 에일린의 뜰 아파트),35.1654028,128.1090874
539242,에일린의 뜰 어린이놀이터2,,경상남도 진주시 강변길 31 (가좌동 가호 에일린의 뜰 아파트),2012-05-16,주택단지,경상남도 진주시 강변길 31 (가좌동 가호 에일린의 뜰 아파트),35.1654028,128.1090874
539271,에일린의 뜰 유아놀이터,,경상남도 진주시 강변길 31 (가좌동 가호 에일린의 뜰 아파트),2012-05-16,주택단지,경상남도 진주시 강변길 31 (가좌동 가호 에일린의 뜰 아파트),35.1654028,128.1090874
533708,진양호가족쉼터,,경상남도 진주시 남강로1번길 76 (판문동),2012-05-23,도시공원,경상남도 진주시 남강로1번길 76 (판문동),35.1732538,128.0384062
5113,가호7공원 어린이놀이시설,,경상남도 진주시 호탄길34번길 4 (호탄동)(호탄동 638),2012-06-08,도시공원,경상남도 진주시 호탄길34번길 4 (호탄동)(호탄동 638),35.1645055,128.1165047
5114,가호8공원 어린이놀이시설,,경상남도 진주시 호탄길9번길 12 (호탄동),2012-06-08,도시공원,경상남도 진주시 호탄길9번길 12 (호탄동),35.1623272,128.1150196
5122,대평소공원 어린이놀이시설,,경상남도 진주시 대평면 한들길31번길 20,2012-06-08,도시공원,경상남도 진주시 대평면 한들길31번길 20,35.2310916,127.9589416
528211,가호5공원 어린이놀이시설,,경상남도 진주시 가호로 18 (가좌동)뒤편일대,2012-06-08,도시공원,경상남도 진주시 가호로 18 (가좌동)뒤편일대,35.1629566,128.1082744
533965,아이랜드어린이집 놀이터,경남 진주시 집현면 신당리633번지,경상남도 진주시 집현면 신당길 142-10,2012-06-11,어린이집,경상남도 진주시 집현면 신당길 142-10,35.2281611,128.1145923
540676,평거달팽이공원 어린이놀이시설,,경상남도 진주시 새평거로 85 (평거동)옆,2012-07-04,도시공원,경상남도 진주시 새평거로 85 (평거동)옆,35.1690491,128.056797
540677,평거종이비행기공원 어린이놀이시설,경남 진주시 평거동 평거휴먼시아3단지진주시 평거동 960,경상남도 진주시 새평거로 111 평거휴먼시아3단지 (평거동),2012-07-04,도시공원,경상남도 진주시 새평거로 111 평거휴먼시아3단지 (평거동),35.1704321,128.0590943
545427,봉곡초등학교병설유치원 어린이놀이시설,,경상남도 진주시 북장대로36번길 8 (봉곡동),2012-07-04,유치원,경상남도 진주시 북장대로36번길 8 (봉곡동),35.1945929,128.074925
540675,평거햇살공원 어린이놀이시설,경남 진주시 평거동 평거휴먼시아4단지진주시 평거동 896,경상남도 진주시 새평거로 75 평거휴먼시아4단지 (평거동),2012-07-05,도시공원,경상남도 진주시 새평거로 75 평거휴먼시아4단지 (평거동),35.1680673,128.0550829
554113,무지개동산 장난감은행 실내놀이터,,경상남도 진주시 내동면 삼계로 430무지개동산 1층,2012-08-03,아동복지시설,경상남도 진주시 내동면 삼계로 430무지개동산 1층,35.1592404,128.0321082
535423,진주평거5단지 놀이터1,,경상남도 진주시 새평거로 70 (평거동 평거엘에이치5단지),2012-08-24,주택단지,경상남도 진주시 새평거로 70 (평거동 평거엘에이치5단지),35.1668001,128.0565873
535424,진주평거5단지 놀이터2,,경상남도 진주시 새평거로 70 (평거동 평거엘에이치5단지),2012-08-24,주택단지,경상남도 진주시 새평거로 70 (평거동 평거엘에이치5단지),35.1668001,128.0565873
535425,진주평거5단지 유아놀이터,,경상남도 진주시 새평거로 70 (평거동 평거엘에이치5단지),2012-08-24,주택단지,경상남도 진주시 새평거로 70 (평거동 평거엘에이치5단지),35.1668001,128.0565873
536128,가좌올리움아파트 복리동 앞,,경상남도 진주시 가호로 17-10 (가좌동 올리움아파트),2012-10-09,주택단지,경상남도 진주시 가호로 17-10 (가좌동 올리움아파트),35.1648416,128.1080677
536129,가좌올리움아파트 101동 뒤,,경상남도 진주시 가호로 17-10 (가좌동 올리움아파트),2012-10-09,주택단지,경상남도 진주시 가호로 17-10 (가좌동 올리움아파트),35.1648416,128.1080677
536187,아이뜰어린이집 놀이시설,경남 진주시 상평동198-85,경상남도 진주시 돗골로94번길 17 (상평동),2012-10-12,어린이집,경상남도 진주시 돗골로94번길 17 (상평동),35.1767007,128.114421
500550,평거초등학교병설유치원 어린이놀이시설,,경상남도 진주시 진양호로51번길 16 (판문동),2012-10-26,유치원,경상남도 진주시 진양호로51번길 16 (판문동),35.1693369,128.0452225
33387,가람초등학교 어린이놀이시설,,경상남도 진주시 남강로959번길 22 (상평동),2012-12-21,학교,경상남도 진주시 남강로959번길 22 (상평동),35.1736706,128.1013672
7165,가호11공원 어린이놀이시설,,경상남도 진주시 진주대로 578 (가좌동),2013-01-31,도시공원,경상남도 진주시 진주대로 578 (가좌동),35.1580967,128.1081667
7304,가좌택지근린공원 어린이놀이시설,,경상남도 진주시 진주대로500번길 9-1 (가좌동),2013-01-31,도시공원,경상남도 진주시 진주대로500번길 9-1 (가좌동),35.1518928,128.1058236
537660,진주 신안2지구 어린이공원,,경상남도 진주시 진양호로 303 (신안동),2013-01-31,도시공원,경상남도 진주시 진양호로 303 (신안동),35.1812864,128.0647337
538937,아이숲어린이집,경남 진주시 망경동368,경상남도 진주시 봉수대길 41-12 (망경동),2013-02-13,어린이집,경상남도 진주시 봉수대길 41-12 (망경동),35.1799897,128.0804495
539025,총림사아이숲유치원 어린이놀이시설,,경상남도 진주시 봉수대길 41-10 (망경동),2013-02-22,유치원,경상남도 진주시 봉수대길 41-10 (망경동),35.1799557,128.0802118
541364,정촌1어린이공원,,경상남도 진주시 정촌면 삼일로72번길 18-3옆,2013-03-28,도시공원,경상남도 진주시 정촌면 삼일로72번길 18-3옆,35.1256616,128.0999945
540057,내동초등학교병설유치원 어린이놀이시설,,경상남도 진주시 내동면 순환로 426,2013-04-29,유치원,경상남도 진주시 내동면 순환로 426,35.1649043,128.0678955
540086,명화재능어린이집,경남 진주시 상대동611-12,경상남도 진주시 선학산길 13 (상대동),2013-05-15,어린이집,경상남도 진주시 선학산길 13 (상대동),35.1836824,128.108171
551620,명화재능 어린이집 놀이터,,경상남도 진주시 선학산길17번길 3 (상대동)상대동 611-10,2013-05-15,어린이집,경상남도 진주시 선학산길17번길 3 (상대동)상대동 611-10,35.1838482,128.1081398
5109,상평서동공원 어린이놀이시설,경남 진주시 상평동260-1,경상남도 진주시 남강로1117번길 20 (상평동),2013-06-07,도시공원,경상남도 진주시 남강로1117번길 20 (상평동),35.1697145,128.1143083
5110,가호1공원 어린이놀이시설,경남 진주시 가좌동1432-1,경상남도 진주시 가좌길78번길 9-1 (가좌동),2013-06-07,도시공원,경상남도 진주시 가좌길78번길 9-1 (가좌동),35.160275,128.1066525
5116,평거4공원 어린이놀이시설,,경상남도 진주시 진양호로328번길 9 (신안동),2013-06-07,도시공원,경상남도 진주시 진양호로328번길 9 (신안동),35.1819257,128.067789
5117,평거7공원 어린이놀이시설,경상남도 진주시 신안동705-2,,2013-06-07,도시공원,경상남도 진주시 신안동705-2,35.1774811,128.0655564
5119,평거11공원 어린이놀이시설,,경상남도 진주시 신평공원길11번길 12-8 (평거동),2013-06-07,도시공원,경상남도 진주시 신평공원길11번길 12-8 (평거동),35.1712578,128.0651333
5121,중천공원 어린이놀이시설,,경상남도 진주시 금산면 중천로21번길 11,2013-06-07,도시공원,경상남도 진주시 금산면 중천로21번길 11,35.2162857,128.1405744
6223,도래새미공원(상평2) 어린이놀이시설,,경상남도 진주시 도동로248번길 24 (하대동),2013-06-07,도시공원,경상남도 진주시 도동로248번길 24 (하대동),35.192469,128.1244404
12468,가호2공원 어린이놀이시설,,경상남도 진주시 가좌길60번길 8 (가좌동),2013-06-07,도시공원,경상남도 진주시 가좌길60번길 8 (가좌동),35.1588818,128.1060406
12471,평거3공원 어린이놀이시설,,경상남도 진주시 순환로559번길 10 (평거동),2013-06-07,도시공원,경상남도 진주시 순환로559번길 10 (평거동),35.173481,128.0584842
12474,평거9공원 어린이놀이시설,,경상남도 진주시 석갑로 45 (평거동 들말흥한아파트),2013-06-07,도시공원,경상남도 진주시 석갑로 45 (평거동 들말흥한아파트),35.1759286,128.0651785
12475,평거10공원 어린이놀이시설,,경상남도 진주시 평거로39번길 9 (평거동 들말한보타운),2013-06-07,도시공원,경상남도 진주시 평거로39번길 9 (평거동 들말한보타운),35.1735144,128.0633382
24276,가호9공원 어린이놀이시설,,경상남도 진주시 진주대로542번길 19-9 (가좌동),2013-06-07,도시공원,경상남도 진주시 진주대로542번길 19-9 (가좌동),35.1549018,128.1087777
24297,송림공원 어린이놀이시설,,경상남도 진주시 공단로 85 (상평동)송림공원,2013-06-07,도시공원,경상남도 진주시 공단로 85 (상평동)송림공원,35.1754195,128.1091043
542654,상대한보타운(102동),,경상남도 진주시 도동천로 120 (상대동 상대한보아파트),2013-07-07,주택단지,경상남도 진주시 도동천로 120 (상대동 상대한보아파트),35.1809738,128.1136031
542655,상대한보타운(103동),,경상남도 진주시 도동천로 120 (상대동 상대한보아파트),2013-07-07,주택단지,경상남도 진주시 도동천로 120 (상대동 상대한보아파트),35.1809738,128.1136031
540921,가호12어린이공원,,경상남도 진주시 강변길20번길 2 (가좌동),2013-07-15,도시공원,경상남도 진주시 강변길20번길 2 (가좌동),35.1657387,128.1107788
545527,글로리아어린이집,,경상남도 진주시 진산로358번길 14(장재동),2013-07-19,어린이집,경상남도 진주시 진산로358번길 14(장재동),35.2166178,128.1018391
12465,장대어린이공원 어린이놀이시설,,경상남도 진주시 장대로15번길 1 (장대동),2013-08-29,도시공원,경상남도 진주시 장대로15번길 1 (장대동),35.1928581,128.0886146
542096,애플키즈스쿨어린이집,,경상남도 진주시 금산면 중장로 42,2013-08-30,어린이집,경상남도 진주시 금산면 중장로 42,35.2177413,128.1386964
548633,경남혁신LH 1단지 아파트내 산성 조합놀이대,,경상남도 진주시 사들로 157 (충무공동 혁신도시엘에이치아파트1단지),2013-10-22,주택단지,경상남도 진주시 사들로 157 (충무공동 혁신도시엘에이치아파트1단지),35.1822785,128.1477032
543412,진주센트럴자이아파트 101동 북측놀이터,,경상남도 진주시 도동천로 48 (상평동 진주센트럴자이),2013-11-04,주택단지,경상남도 진주시 도동천로 48 (상평동 진주센트럴자이),35.17784,128.1057896
543413,진주센트럴자이아파트 104동 동측놀이터,,경상남도 진주시 도동천로 48 (상평동 진주센트럴자이),2013-11-04,주택단지,경상남도 진주시 도동천로 48 (상평동 진주센트럴자이),35.17784,128.1057896
543414,진주센트럴자이아파트 101동 서측놀이터,,경상남도 진주시 도동천로 48 (상평동 진주센트럴자이),2013-11-04,주택단지,경상남도 진주시 도동천로 48 (상평동 진주센트럴자이),35.17784,128.1057896
542671,경남혁신LH 1단지 아파트내 어린이공원1호 놀이터,,경상남도 진주시 사들로 157 (충무공동 혁신도시엘에이치아파트1단지),2013-11-15,주택단지,경상남도 진주시 사들로 157 (충무공동 혁신도시엘에이치아파트1단지),35.1822785,128.1477032
542672,경남혁신LH 1단지 아파트내 유아 놀이터,,경상남도 진주시 사들로 157 (충무공동 혁신도시엘에이치아파트1단지),2013-11-15,주택단지,경상남도 진주시 사들로 157 (충무공동 혁신도시엘에이치아파트1단지),35.1822785,128.1477032
542752,실크어린이공원 어린이놀이시설,,경상남도 진주시 동진로 415 (충무공동)충무공동 190-3,2013-11-15,도시공원,경상남도 진주시 동진로 415 (충무공동)충무공동 190-3,35.1826124,128.135838
542833,토끼달어린이공원 어린이놀이시설,경상남도 진주시 문산읍 소문리 2189-3,경상남도 진주시 문산읍 동진로 415,2013-11-15,도시공원,경상남도 진주시 문산읍 동진로 415,35.1826124,128.135838
542834,여우별어린이공원 어린이놀이시설,경상남도 진주시 문산읍 소문리 2189-3,경상남도 진주시 문산읍 동진로 415,2013-11-15,도시공원,경상남도 진주시 문산읍 동진로 415,35.1826124,128.135838
543386,생기율공원 놀이시설,,경상남도 진주시 소호로 101 (충무공동),2013-11-22,도시공원,경상남도 진주시 소호로 101 (충무공동),35.1772403,128.1346375
543387,따스하리공원 놀이터,,경상남도 진주시 동진로 430 (충무공동),2013-11-22,도시공원,경상남도 진주시 동진로 430 (충무공동),35.1803777,128.1383546
517116,대곡초등학교 어린이놀이시설,,경상남도 진주시 대곡면 진의로 970,2013-12-16,학교,경상남도 진주시 대곡면 진의로 970,35.2578774,128.1771078
550901,물새어린이공원 어린이놀이시설,,경상남도 진주시 동진로 487 (충무공동)개발사업조경공사 2공구 내,2014-01-17,도시공원,경상남도 진주시 동진로 487 (충무공동)개발사업조경공사 2공구 내,35.1819117,128.144537
548580,경남혁신LH4단지 어린이놀이터3호,,경상남도 진주시 사들로 126 (충무공동 혁신도시엘에이치아파트4단지),2014-02-03,주택단지,경상남도 진주시 사들로 126 (충무공동 혁신도시엘에이치아파트4단지),35.1787407,128.1495046
548581,경남혁신LH4단지 어린이놀이터2호,,경상남도 진주시 사들로 126 (충무공동 혁신도시엘에이치아파트4단지),2014-02-03,주택단지,경상남도 진주시 사들로 126 (충무공동 혁신도시엘에이치아파트4단지),35.1787407,128.1495046
548582,경남혁신LH4단지 어린이놀이터1호,,경상남도 진주시 사들로 126 (충무공동 혁신도시엘에이치아파트4단지),2014-02-03,주택단지,경상남도 진주시 사들로 126 (충무공동 혁신도시엘에이치아파트4단지),35.1787407,128.1495046
548583,경남혁신LH4단지 유아놀이터,,경상남도 진주시 사들로 126 (충무공동 혁신도시엘에이치아파트4단지),2014-02-03,주택단지,경상남도 진주시 사들로 126 (충무공동 혁신도시엘에이치아파트4단지),35.1787407,128.1495046
543994,상아어린이집 옥상놀이시설,,경상남도 진주시 돗골로106번길 10(상평동),2014-02-04,어린이집,경상남도 진주시 돗골로106번길 10(상평동),35.1774685,128.1134041
543995,상아어린이집 실외놀이시설,,경상남도 진주시 돗골로106번길 10(상평동),2014-02-04,어린이집,경상남도 진주시 돗골로106번길 10(상평동),35.1774685,128.1134041
546427,한국남동발전 빛뜰어린이집 놀이터,,경상남도 진주시 사들로123번길 32 (충무공동),2014-02-07,어린이집,경상남도 진주시 사들로123번길 32 (충무공동),35.1803572,128.1455947
550900,대나무어린이공원 어린이놀이시설,,경상남도 진주시 문산읍 월아산로 1214-12,2014-02-20,도시공원,경상남도 진주시 문산읍 월아산로 1214-12,35.1789969,128.1564174
544268,서진초등학교병설유치원 어린이놀이시설,,경상남도 진주시 새평거로 85 (평거동),2014-02-23,유치원,경상남도 진주시 새평거로 85 (평거동),35.1690491,128.056797
545114,진주유치원 어린이놀이시설,,경상남도 진주시 강남로201번길 12-3 (칠암동),2014-02-25,유치원,경상남도 진주시 강남로201번길 12-3 (칠암동),35.1852762,128.0912594
546992,진주평거엠코타운 유아놀이터5 (104동),,경상남도 진주시 새평거로 30 (평거동 엠코타운더프라하),2014-03-27,주택단지,경상남도 진주시 새평거로 30 (평거동 엠코타운더프라하),35.1651215,128.0524373
546993,진주평거엠코타운 놀이터1 (104동~111동사이),,경상남도 진주시 새평거로 30 (평거동 엠코타운더프라하),2014-03-27,주택단지,경상남도 진주시 새평거로 30 (평거동 엠코타운더프라하),35.1651215,128.0524373
546994,진주평거엠코타운 놀이터2 (102~108동사이),,경상남도 진주시 새평거로 30 (평거동 엠코타운더프라하),2014-03-27,주택단지,경상남도 진주시 새평거로 30 (평거동 엠코타운더프라하),35.1651215,128.0524373
546995,진주평거엠코타운 놀이터3 (109~110동사이),,경상남도 진주시 새평거로 30 (평거동 엠코타운더프라하),2014-03-27,주택단지,경상남도 진주시 새평거로 30 (평거동 엠코타운더프라하),35.1651215,128.0524373
546996,진주평거엠코타운 놀이터4 (105~112동사이),,경상남도 진주시 새평거로 30 (평거동 엠코타운더프라하),2014-03-27,주택단지,경상남도 진주시 새평거로 30 (평거동 엠코타운더프라하),35.1651215,128.0524373
500512,선학초등학교 어린이놀이시설,,경상남도 진주시 하대로105번길 26 (초전동),2014-04-01,학교,경상남도 진주시 하대로105번길 26 (초전동),35.196218,128.123527
546999,진주시육아종합지원센터 어린이놀이시설,,경상남도 진주시 남강로 1463 (하대동),2014-04-17,아동복지시설,경상남도 진주시 남강로 1463 (하대동),35.1914763,128.128048
545816,현대엠코타운아파트 어린이놀이터1,,경상남도 진주시 초북로 77 (초전동 진주 초장 엠코타운 더 이스턴파크),2014-05-11,주택단지,경상남도 진주시 초북로 77 (초전동 진주 초장 엠코타운 더 이스턴파크),35.2133726,128.1087271
545817,현대엠코타운아파트 어린이놀이터2,,경상남도 진주시 초북로 77 (초전동 진주 초장 엠코타운 더 이스턴파크),2014-05-11,주택단지,경상남도 진주시 초북로 77 (초전동 진주 초장 엠코타운 더 이스턴파크),35.2133726,128.1087271
500129,금산초등학교 어린이놀이시설,,경상남도 진주시 금산면 금산로 75,2014-05-27,학교,경상남도 진주시 금산면 금산로 75,35.2154408,128.1441995
545964,금산초등학교병설유치원 어린이놀이시설,,경상남도 진주시 금산면 금산로 75,2014-05-27,유치원,경상남도 진주시 금산면 금산로 75,35.2154408,128.1441995
546632,해모로루비채 4블럭 어린이놀이터2,,경상남도 진주시 초북로 55 (초전동 초전 해모로 루비채 4단지),2014-06-18,주택단지,경상남도 진주시 초북로 55 (초전동 초전 해모로 루비채 4단지),35.2120143,128.1097818
546633,초전해모로루비채2단지 201동 놀이터,,경상남도 진주시 초북로 88 (초전동 초전 해모로 루비채 2단지),2014-06-18,주택단지,경상남도 진주시 초북로 88 (초전동 초전 해모로 루비채 2단지),35.2148053,128.1078702
546351,갈전초등학교 어린이놀이시설,,경상남도 진주시 사들로 173 (충무공동),2014-06-19,학교,경상남도 진주시 사들로 173 (충무공동),35.1832091,128.1490453
546634,초전해모로루비채2단지 204동 놀이터,,경상남도 진주시 초북로 88 (초전동 초전 해모로 루비채 2단지),2014-06-19,주택단지,경상남도 진주시 초북로 88 (초전동 초전 해모로 루비채 2단지),35.2148053,128.1078702
546636,해모로루비채 4블럭 어린이놀이터3,,경상남도 진주시 초북로 55 (초전동 초전 해모로 루비채 4단지),2014-06-19,주택단지,경상남도 진주시 초북로 55 (초전동 초전 해모로 루비채 4단지),35.2120143,128.1097818
546637,해모로 루비채 4블럭 물놀이장,,경상남도 진주시 초북로 55 (초전동 초전 해모로 루비채 4단지),2014-06-19,주택단지,경상남도 진주시 초북로 55 (초전동 초전 해모로 루비채 4단지),35.2120143,128.1097818
546413,진주아파트 어린이놀이시설,,경상남도 진주시 공단로139번길 3 (상평동 진주조합주택),2014-06-27,주택단지,경상남도 진주시 공단로139번길 3 (상평동 진주조합주택),35.1759533,128.1148149
500136,대곡초등학교병설유치원 어린이놀이시설,,경상남도 진주시 대곡면 진의로 970,2014-07-21,유치원,경상남도 진주시 대곡면 진의로 970,35.2578774,128.1771078
500501,배영초등학교 어린이놀이시설,,경상남도 진주시 석갑로 28 (신안동),2014-07-21,학교,경상남도 진주시 석갑로 28 (신안동),35.1764946,128.0676577
549088,경남혁신 LH5단지 나비놀이터,,경상남도 진주시 충의로 67 (충무공동 혁신도시엘에이치아파트5단지),2014-09-11,주택단지,경상남도 진주시 충의로 67 (충무공동 혁신도시엘에이치아파트5단지),35.1784791,128.1520472
547430,진주초장1지구 1호어린이공원,경상남도 진주시 초전동978,,2014-09-15,도시공원,경상남도 진주시 초전동978,35.2141391,128.1108167
547431,진주초장1지구 2호어린이공원,경상남도 진주시 초전동1335-2,,2014-09-15,도시공원,경상남도 진주시 초전동1335-2,35.2085928,128.1103774
547432,진주초장1지구 3호어린이공원,경상남도 진주시 초전동1079,,2014-09-15,도시공원,경상남도 진주시 초전동1079,35.210656,128.1145682
547433,진주초장1지구 4호어린이공원,경상남도 진주시 초전동630-2,,2014-09-15,도시공원,경상남도 진주시 초전동630-2,35.2097304,128.1145479
549089,경남혁신 LH5단지 나루놀이터,,경상남도 진주시 충의로 67 (충무공동 혁신도시엘에이치아파트5단지),2014-09-18,주택단지,경상남도 진주시 충의로 67 (충무공동 혁신도시엘에이치아파트5단지),35.1784791,128.1520472
549090,경남혁신 LH5단지 봉수대놀이터,,경상남도 진주시 충의로 67 (충무공동 혁신도시엘에이치아파트5단지),2014-09-18,주택단지,경상남도 진주시 충의로 67 (충무공동 혁신도시엘에이치아파트5단지),35.1784791,128.1520472
547769,꼬마대통령 진주 평거점,,경상남도 진주시 평거로9번길 16 (평거동),2014-09-28,놀이제공영업소,경상남도 진주시 평거로9번길 16 (평거동),35.1729672,128.0618589
548954,현대성우트리펠리스아파트 어린이놀이시설,,경상남도 진주시 진주대로879번길 19 (주약동 현대성우트리팰리스),2014-12-05,주상복합,경상남도 진주시 진주대로879번길 19 (주약동 현대성우트리팰리스),35.1779539,128.0898807
554665,라움의원,,경상남도 진주시 진양호로 227 (평거동)로얄빌딩 9층,2015-01-08,의료기관,경상남도 진주시 진양호로 227 (평거동)로얄빌딩 9층,35.1746266,128.0610337
550275,충무공동 장난감은행 실내놀이시설,,경상남도 진주시 충의로 145 (충무공동)다목적주민센터,2015-02-03,아동복지시설,경상남도 진주시 충의로 145 (충무공동)다목적주민센터,35.1748998,128.150337
550254,진주보듬이나눔이어린이집,,경상남도 진주시 영천강로119번길 54 (충무공동),2015-02-10,어린이집,경상남도 진주시 영천강로119번길 54 (충무공동),35.1711355,128.1355561
550437,LH신사옥 어린이놀이시설,,경상남도 진주시 충의로 19 (충무공동),2015-02-16,어린이집,경상남도 진주시 충의로 19 (충무공동),35.1781698,128.1457689
550561,더퀸즈웰가아파트 유아놀이터,,경상남도 진주시 새평거로 25 (평거동 더 퀸즈 웰가),2015-02-23,주택단지,경상남도 진주시 새평거로 25 (평거동 더 퀸즈 웰가),35.1666876,128.0519226
550562,더퀸즈웰가아파트 1놀이터,,경상남도 진주시 새평거로 25 (평거동 더 퀸즈 웰가),2015-02-23,주택단지,경상남도 진주시 새평거로 25 (평거동 더 퀸즈 웰가),35.1666876,128.0519226
550564,더퀸즈웰가아파트 2놀이터,,경상남도 진주시 새평거로 25 (평거동 더 퀸즈 웰가),2015-02-23,주택단지,경상남도 진주시 새평거로 25 (평거동 더 퀸즈 웰가),35.1666876,128.0519226
550565,더퀸즈웰가아파트 3놀이터,,경상남도 진주시 새평거로 25 (평거동 더 퀸즈 웰가),2015-02-23,주택단지,경상남도 진주시 새평거로 25 (평거동 더 퀸즈 웰가),35.1666876,128.0519226
550566,더퀸즈웰가아파트 4놀이터,,경상남도 진주시 새평거로 25 (평거동 더 퀸즈 웰가),2015-02-23,주택단지,경상남도 진주시 새평거로 25 (평거동 더 퀸즈 웰가),35.1666876,128.0519226
556244,예돈가(충무공동점),,경상남도 진주시 사들로123번길 16 (충무공동)휴니온팝2층 206207호,2015-05-07,식품접객업소,경상남도 진주시 사들로123번길 16 (충무공동)휴니온팝2층 206207호,35.1795024,128.1468059
551817,서진초등학교 어린이놀이시설,,경상남도 진주시 새평거로 85 (평거동),2015-05-12,학교,경상남도 진주시 새평거로 85 (평거동),35.1690491,128.056797
500170,동진초등학교 어린이놀이시설,,경상남도 진주시 도동로184번길 13 (하대동),2015-05-20,학교,경상남도 진주시 도동로184번길 13 (하대동),35.1876171,128.1241862
541278,동진초등학교병설유치원 어린이놀이시설,,경상남도 진주시 도동로184번길 13 (하대동),2015-05-20,유치원,경상남도 진주시 도동로184번길 13 (하대동),35.1876171,128.1241862
529706,가좌초등학교병설유치원 어린이놀이시설,,경상남도 진주시 내동로348번길 17 (가좌동),2015-07-29,유치원,경상남도 진주시 내동로348번길 17 (가좌동),35.1494881,128.1033158
552920,한림풀에버 놀이터2,,경상남도 진주시 에나로 69 (충무공동),2015-08-11,주택단지,경상남도 진주시 에나로 69 (충무공동),35.1771699,128.1367832
552921,한림풀에버 놀이터3,,경상남도 진주시 에나로 69 (충무공동),2015-08-11,주택단지,경상남도 진주시 에나로 69 (충무공동),35.1771699,128.1367832
552918,한림풀에버 유아놀이터,,경상남도 진주시 에나로 69 (충무공동),2015-08-13,주택단지,경상남도 진주시 에나로 69 (충무공동),35.1771699,128.1367832
552919,한림풀에버 놀이터1,,경상남도 진주시 에나로 69 (충무공동),2015-08-13,주택단지,경상남도 진주시 에나로 69 (충무공동),35.1771699,128.1367832
554553,진주혁신도시 8단지 803동 앞,,경상남도 진주시 사들로 35 (충무공동 혁신도시엘에이치아파트8단지)803동 앞,2015-11-24,주택단지,경상남도 진주시 사들로 35 (충무공동 혁신도시엘에이치아파트8단지)803동 앞,35.1719117,128.1464168
554554,진주혁신도시 8단지 804동 앞,,경상남도 진주시 사들로 35 (충무공동 혁신도시엘에이치아파트8단지)804동 앞,2015-11-24,주택단지,경상남도 진주시 사들로 35 (충무공동 혁신도시엘에이치아파트8단지)804동 앞,35.1719117,128.1464168
554555,진주혁신도시 8단지 807동 앞,,경상남도 진주시 사들로 35 (충무공동 혁신도시엘에이치아파트8단지)807동 앞,2015-11-24,주택단지,경상남도 진주시 사들로 35 (충무공동 혁신도시엘에이치아파트8단지)807동 앞,35.1719117,128.1464168
554556,진주혁신도시 8단지 809동 앞,,경상남도 진주시 사들로 35 (충무공동 혁신도시엘에이치아파트8단지)809동 앞,2015-11-24,주택단지,경상남도 진주시 사들로 35 (충무공동 혁신도시엘에이치아파트8단지)809동 앞,35.1719117,128.1464168
554427,라라코스트 초전점,,경상남도 진주시 초북로 36 (초전동),2015-12-07,식품접객업소,경상남도 진주시 초북로 36 (초전동),35.2119154,128.1117259
554541,차타타(진주 평거점),,경상남도 진주시 순환로 541 (평거동)7층 자동차타타,2015-12-23,놀이제공영업소,경상남도 진주시 순환로 541 (평거동)7층 자동차타타,35.1722671,128.0604863
555451,이바돔감자탕진주혁신도시점,,경상남도 진주시 사들로 91 (충무공동)이룸플러스빌딩 2층,2016-04-05,식품접객업소,경상남도 진주시 사들로 91 (충무공동)이룸플러스빌딩 2층,35.1758566,128.1486992
555786,문산초등학교 어린이놀이시설,,경상남도 진주시 문산읍 소문길 11문산초등학교,2016-04-08,학교,경상남도 진주시 문산읍 소문길 11문산초등학교,35.1714053,128.1622365
557122,중소기업진흥공단어린이집,,경상남도 진주시 동진로 430 (충무공동)중소기업진흥공단 2층,2016-08-08,어린이집,경상남도 진주시 동진로 430 (충무공동)중소기업진흥공단 2층,35.1803777,128.1383546
557159,무지개초등학교 어린이놀이시설,,경상남도 진주시 영천강로119번길 37 (충무공동),2016-08-26,학교,경상남도 진주시 영천강로119번길 37 (충무공동),35.1715108,128.1372622
557348,타요키즈까페,,경상남도 진주시 동진로 440 (충무공동)롯데몰 4층,2016-09-22,놀이제공영업소,경상남도 진주시 동진로 440 (충무공동)롯데몰 4층,35.1801082,128.1398701
557996,평거엘크루 101동 앞,,경상남도 진주시 새평거로 112 (평거동 진주평거 엘크루),2016-10-31,주택단지,경상남도 진주시 새평거로 112 (평거동 진주평거 엘크루),35.1693212,128.0603305
557997,평거엘크루 108동 앞,,경상남도 진주시 새평거로 112 (평거동 진주평거 엘크루),2016-10-31,주택단지,경상남도 진주시 새평거로 112 (평거동 진주평거 엘크루),35.1693212,128.0603305
557998,평거엘크루 109동 앞,,경상남도 진주시 새평거로 112 (평거동 진주평거 엘크루),2016-10-31,주택단지,경상남도 진주시 새평거로 112 (평거동 진주평거 엘크루),35.1693212,128.0603305
557825,쉐프의부대찌개(평거점),,경상남도 진주시 남강로309번길 20 (평거동)2층,2016-11-03,식품접객업소,경상남도 진주시 남강로309번길 20 (평거동)2층,35.1694603,128.0625136
557960,경상대학교 GNU 어린이집 놀이터,,경상남도 진주시 진주대로 501 (가좌동),2016-11-15,어린이집,경상남도 진주시 진주대로 501 (가좌동),35.1538877,128.0985941
558014,한마음선원 어린이놀이터,,경상남도 진주시 미천면 오방로 528-40,2016-11-18,종교시설,경상남도 진주시 미천면 오방로 528-40,35.285876,128.1352624
558462,평거4지구 제2어린이공원,경남 진주시 평거동1086-8,,2016-12-23,도시공원,경남 진주시 평거동1086-8,35.1652889,128.0411616
558463,평거4지구 제1어린이공원,경남 진주시 평거동1078-5,,2016-12-23,도시공원,경남 진주시 평거동1078-5,35.1667505,128.0419307
559512,주민공동시설 뒤편 놀이터,,경상남도 진주시 사들로 13 (충무공동 혁신도시엘에이치아파트9단지)혁신도시엘에이치 아파트9단지,2017-04-10,주택단지,경상남도 진주시 사들로 13 (충무공동 혁신도시엘에이치아파트9단지)혁신도시엘에이치 아파트9단지,35.1714321,128.1449873
559513,905동 뒤 놀이시설,,경상남도 진주시 사들로 13 (충무공동 혁신도시엘에이치아파트9단지)901동 놀이시설,2017-04-10,주택단지,경상남도 진주시 사들로 13 (충무공동 혁신도시엘에이치아파트9단지)901동 놀이시설,35.1714321,128.1449873
559514,901동 앞 놀이시설,,경상남도 진주시 사들로 13 (충무공동 혁신도시엘에이치아파트9단지)혁신도시엘에이치아파트9단지,2017-04-10,주택단지,경상남도 진주시 사들로 13 (충무공동 혁신도시엘에이치아파트9단지)혁신도시엘에이치아파트9단지,35.1714321,128.1449873
559515,보육시설 앞 놀이시설,,경상남도 진주시 사들로 13 (충무공동 혁신도시엘에이치아파트9단지)혁신도시엘에이치아파트9단지,2017-04-10,주택단지,경상남도 진주시 사들로 13 (충무공동 혁신도시엘에이치아파트9단지)혁신도시엘에이치아파트9단지,35.1714321,128.1449873
560633,노리파크 (초전점),,경상남도 진주시 초북로20번길 30-12 (초전동)3층 노리파크,2017-06-13,식품접객업소,경상남도 진주시 초북로20번길 30-12 (초전동)3층 노리파크,35.2135861,128.1119479
561020,키즈랜드 정글어드벤쳐 놀이시설,,경상남도 진주시 판문로 155 (판문동)판문동 97,2017-07-31,놀이제공영업소,경상남도 진주시 판문로 155 (판문동)판문동 97,35.1810096,128.040403
561220,진주 월경사 어린이 놀이터,,경상남도 진주시 망경로224번길 45 (망경동),2017-08-30,종교시설,경상남도 진주시 망경로224번길 45 (망경동),35.1810714,128.0803267
561360,진주혁신도시 라온프라이빗 어린이놀이터 1(204동 옆),,경상남도 진주시 사들로 157 (충무공동 혁신도시엘에이치아파트1단지)충무공동 195 혁신도시 라온프라이빗,2017-09-01,주택단지,경상남도 진주시 사들로 157 (충무공동 혁신도시엘에이치아파트1단지)충무공동 195 혁신도시 라온프라이빗,35.1822785,128.1477032
561361,진주혁신도시 라온프라이빗 어린이놀이터 3(206동 앞),,경상남도 진주시 사들로 157 (충무공동 혁신도시엘에이치아파트1단지)충무공동 195,2017-09-01,주택단지,경상남도 진주시 사들로 157 (충무공동 혁신도시엘에이치아파트1단지)충무공동 195,35.1822785,128.1477032
561135,경남 진주 라온프라이빗 미로놀이터,,경상남도 진주시 사들로156번길 5 (충무공동)충무공동 195 라온프라이빗 아파트,2017-09-15,주택단지,경상남도 진주시 사들로156번길 5 (충무공동)충무공동 195 라온프라이빗 아파트,35.1817503,128.1497539
561590,진주 평거 아모리움아파트 놀이터(101동 앞),경남 진주시 평거동133-1,,2017-10-12,주택단지,경남 진주시 평거동133-1,35.1747435,128.0595166
564094,경남혁신 A-3BL 아파트 내 304동 앞 어린이놀이터 2,경상남도 진주시 충무공동219 (LH 3단지 내),,2018-05-09,주택단지,경상남도 진주시 충무공동219 (LH 3단지 내),35.1806159,128.152787
564095,경남혁신 A-3BL 아파트 내 어린이집 앞 유아놀이터,경상남도 진주시 충무공동219 (LH 3단지 내),,2018-05-09,주택단지,경상남도 진주시 충무공동219 (LH 3단지 내),35.1806159,128.152787
564254,천전초등학교 어린이놀이시설,,경상남도 진주시 진주대로954번길 24 (칠암동)행정실,2018-05-16,학교,경상남도 진주시 진주대로954번길 24 (칠암동)행정실,35.1863771,128.0904803
564539,진주대방노블랜드 103동 놀이터,경상남도 진주시 충무공동296 진주혁신도시 대방노블랜드,,2018-06-10,주택단지,경상남도 진주시 충무공동296 진주혁신도시 대방노블랜드,35.1735521,128.1477592
543512,진주혜광학교 실내 어린이놀이시설,,경상남도 진주시 문산읍 월아산로1048번길 36,2018-07-27,학교,경상남도 진주시 문산읍 월아산로1048번길 36,35.1645186,128.1684899
565154,이바돔감자탕진주초전점,,경상남도 진주시 초북로20번길 30-4 (초전동),2018-08-06,식품접객업소,경상남도 진주시 초북로20번길 30-4 (초전동),35.2131139,128.1117319
565496,진주초장 5블럭 이지더원 아파트 502동 놀이터,,경상남도 진주시 초장로 120 (초전동 이지더원 아파트),2018-09-03,주택단지,경상남도 진주시 초장로 120 (초전동 이지더원 아파트),35.2105486,128.1099903
565497,진주초장 5블럭 이지더원 아파트 503동 놀이터,,경상남도 진주시 초장로 120 (초전동 이지더원 아파트),2018-09-03,주택단지,경상남도 진주시 초장로 120 (초전동 이지더원 아파트),35.2105486,128.1099903
565991,진주정촌대경파미르아파트 어린이놀이터1(117동 앞),경상남도 진주시 정촌면 예하리1286,,2018-10-15,주택단지,경상남도 진주시 정촌면 예하리1286,35.1273904,128.1000978
565992,진주정촌대경파미르아파트 어린이놀이터2(104동 뒤),경상남도 진주시 정촌면 예하리1286,,2018-10-15,주택단지,경상남도 진주시 정촌면 예하리1286,35.1273904,128.1000978
565993,진주정촌대경파미르아파트 유아놀이터(111동 뒤),경상남도 진주시 정촌면 예하리1286,,2018-10-15,주택단지,경상남도 진주시 정촌면 예하리1286,35.1273904,128.1000978
566093,신진주역세권센트럴웰가아파트 101동 뒤 놀이터,,경상남도 진주시 진주역로73번길 33 (가좌동 센트럴웰가),2018-10-19,주택단지,경상남도 진주시 진주역로73번길 33 (가좌동 센트럴웰가),35.1538668,128.1115995
566094,신진주역세권센트럴웰가아파트 103동 뒤 놀이터,,경상남도 진주시 진주역로73번길 33 (가좌동 센트럴웰가),2018-10-19,주택단지,경상남도 진주시 진주역로73번길 33 (가좌동 센트럴웰가),35.1538668,128.1115995
566095,신진주역세권센트럴웰가아파트 104동 뒤 놀이터,,경상남도 진주시 진주역로73번길 33 (가좌동 센트럴웰가),2018-10-19,주택단지,경상남도 진주시 진주역로73번길 33 (가좌동 센트럴웰가),35.1538668,128.1115995
566309,진주누리유치원 어린이놀이시설,,경상남도 진주시 진산로358번길 13 (장재동)진주누리유치원,2018-10-31,유치원,경상남도 진주시 진산로358번길 13 (장재동)진주누리유치원,35.2180989,128.1025095
566318,정촌대경파미르아파트 115동 뒤 어린이놀이터3,경상남도 진주시 정촌면 예하리1286,,2018-11-01,주택단지,경상남도 진주시 정촌면 예하리1286,35.1273904,128.1000978
503608,상북초등학교 어린이 놀이시설,,경상남도 창원시 의창구 지귀로60번길 13-13 (봉곡동)상북초등학교,1947-02-28,학교,경상남도 창원시 의창구 지귀로60번길 13-13 (봉곡동)상북초등학교,35.246776,128.653288
503562,북면초등학교 승산분교장 어린이 놀이시설,,경상남도 창원시 의창구 북면 구룡로312번길 7북면초등학교 승산분교장,1965-05-01,학교,경상남도 창원시 의창구 북면 구룡로312번길 7북면초등학교 승산분교장,35.3041793,128.6282519
539295,용마맨션 어린이놀이터,경남 창원시 마산합포구 산호동13-24번지,경상남도 창원시 마산합포구 산호북4길 30 (산호동),1978-10-16,주택단지,경상남도 창원시 마산합포구 산호북4길 30 (산호동),35.2179485,128.5869613
12454,정우맨션 어린이놀이터,창원시 마산회원구 양덕동 158-5,경상남도 창원시 마산회원구 양덕동2길 106 (양덕동),1979-05-01,주택단지,경상남도 창원시 마산회원구 양덕동2길 106 (양덕동),35.22621,128.588488
503173,교동초등학교 어린이 놀이시설,,경상남도 창원시 마산회원구 무학로 589 (회원동)교동초등학교,1980-03-01,학교,경상남도 창원시 마산회원구 무학로 589 (회원동)교동초등학교,35.221501,128.562263
504596,구암초등학교 병설유치원 어린이 놀이시설,,경상남도 창원시 마산회원구 구암북19길 153 (구암동),1982-03-25,유치원,경상남도 창원시 마산회원구 구암북19길 153 (구암동),35.2582515,128.5942438
503036,천사유치원 어린이 놀이시설,,경상남도 창원시 마산회원구 구암서2길 110-1 (구암동)천사유치원,1984-11-09,유치원,경상남도 창원시 마산회원구 구암서2길 110-1 (구암동)천사유치원,35.2494186,128.5945488
4997,상남대우아파트 어린이놀이터1,창원시 성산구 상남동 64-1,경상남도 창원시 성산구 상남로 48 (상남동),1985-12-26,주택단지,경상남도 창원시 성산구 상남로 48 (상남동),35.2179114,128.6798652
5097,무학아파트 어린이놀이터,창원시 마산회원구 합성동 694-1,경상남도 창원시 마산회원구 금강로 35 (합성동 무학아파트),1987-02-01,주택단지,경상남도 창원시 마산회원구 금강로 35 (합성동 무학아파트),35.2392964,128.5786664
502829,합성초등학교 병설유치원 어린이 놀이시설,,경상남도 창원시 마산회원구 합성북16길 75 (합성동)합성초등학교,1987-03-02,유치원,경상남도 창원시 마산회원구 합성북16길 75 (합성동)합성초등학교,35.2427845,128.5819857
6178,사파대동1차아파트 어린이놀이터(1동옆),창원시 성산구 사파동 142,경상남도 창원시 성산구 신사로 106 (사파동),1988-06-30,주택단지,경상남도 창원시 성산구 신사로 106 (사파동),35.2205914,128.6954243
6179,사파대동1차아파트 어린이놀이터(4동옆),창원시 성산구 사파동 142,경상남도 창원시 성산구 신사로 106 (사파동),1988-06-30,주택단지,경상남도 창원시 성산구 신사로 106 (사파동),35.2205914,128.6954243
4966,사파무궁화아파트 어린이놀이터(6동앞),창원시 성산구 사파동 148,경상남도 창원시 성산구 동산로 148 (사파동),1988-08-01,주택단지,경상남도 창원시 성산구 동산로 148 (사파동),35.2205141,128.6931811
4967,사파무궁화아파트 어린이놀이터(16동옆),창원시 성산구 사파동 148,경상남도 창원시 성산구 동산로 148 (사파동),1988-08-01,주택단지,경상남도 창원시 성산구 동산로 148 (사파동),35.2205141,128.6931811
4983,삼익1차아파트 제2놀이터(관리소옆),창원시 성산구 사파동 147,경상남도 창원시 성산구 원이대로773번길 13 (사파동),1988-09-02,주택단지,경상남도 창원시 성산구 원이대로773번길 13 (사파동),35.2191434,128.6946078
4984,삼익1차아파트 제1놀이터(106동옆),창원시 성산구 사파동 147,경상남도 창원시 성산구 원이대로773번길 13 (사파동),1988-09-02,주택단지,경상남도 창원시 성산구 원이대로773번길 13 (사파동),35.2191434,128.6946078
4996,럭키반림아파트 어린이놀이터(2동옆),창원시 성산구 반림동 8,경상남도 창원시 성산구 반송로 105 (반림동 럭키아파트),1989-01-27,주택단지,경상남도 창원시 성산구 반송로 105 (반림동 럭키아파트),35.2388973,128.6683376
4979,삼익2차아파트 어린이놀이터,,경상남도 창원시 성산구 원이대로773번길 13 (사파동),1989-03-01,주택단지,경상남도 창원시 성산구 원이대로773번길 13 (사파동),35.2191434,128.6946078
4986,사파대동2차아파트 어린이놀이터,창원시 성산구 사파동 142,경상남도 창원시 성산구 신사로 106 (사파동),1989-03-01,주택단지,경상남도 창원시 성산구 신사로 106 (사파동),35.2205914,128.6954243
524294,성아종합유치원 어린이 놀이시설,,경상남도 창원시 성산구 원이대로773번길 25 (사파동)성아종합유치원,1989-03-01,유치원,경상남도 창원시 성산구 원이대로773번길 25 (사파동)성아종합유치원,35.2192604,128.696211
4998,상남대우아파트 어린이놀이터2,창원시 성산구 상남동 64-1,경상남도 창원시 성산구 상남로 48 (상남동),1989-04-06,주택단지,경상남도 창원시 성산구 상남로 48 (상남동),35.2179114,128.6798652
5004,사파동서아파트 어린이놀이터,창원시 성산구 사파동 143,경상남도 창원시 성산구 신사로 116 (사파동),1989-12-01,주택단지,경상남도 창원시 성산구 신사로 116 (사파동),35.2214909,128.695702
518865,사파초등학교 어린이 놀이시설,,경상남도 창원시 성산구 원이대로773번길 27 (사파동)사파초등학교,1990-03-01,학교,경상남도 창원시 성산구 원이대로773번길 27 (사파동)사파초등학교,35.2200307,128.6973657
12411,일성그라미아파트 어린이놀이터,,경상남도 창원시 성산구 연덕로184번길 19 (내동 일성그라미아파트),1990-03-09,주택단지,경상남도 창원시 성산구 연덕로184번길 19 (내동 일성그라미아파트),35.2184291,128.6681027
12403,까치1차아차트 어린이놀이터,,경상남도 창원시 성산구 창원천로 254 (반지동 까치아파트),1990-09-01,주택단지,경상남도 창원시 성산구 창원천로 254 (반지동 까치아파트),35.2447062,128.6666788
5017,춘광1차아파트 어린이놀이터,창원시 의창구 북면 신촌리 905-3,경상남도 창원시 의창구 북면 신촌본포로 14 (춘광아파트),1991-01-01,주택단지,경상남도 창원시 의창구 북면 신촌본포로 14 (춘광아파트),35.3474597,128.6092475
6131,하늘어린이공원,,경상남도 창원시 의창구 사화로17번길 23 (팔용동),1991-01-01,도시공원,경상남도 창원시 의창구 사화로17번길 23 (팔용동),35.2587286,128.6111451
12275,윤슬어린이공원,,경상남도 창원시 의창구 남산로9번길 52 (팔용동),1991-01-01,도시공원,경상남도 창원시 의창구 남산로9번길 52 (팔용동),35.2609834,128.6164716
12276,구슬비어린이공원,,경상남도 창원시 의창구 남산로17번길 21 (팔용동),1991-01-01,도시공원,경상남도 창원시 의창구 남산로17번길 21 (팔용동),35.2608503,128.6137123
12301,소나무어린이공원,,경상남도 창원시 의창구 퇴촌로9번길 12 (사림동),1991-01-01,도시공원,경상남도 창원시 의창구 퇴촌로9번길 12 (사림동),35.2429937,128.686721
520934,양덕초등학교 어린이 놀이시설,,경상남도 창원시 마산회원구 양덕동12길 86 (양덕동)양덕초등학교,1991-03-01,학교,경상남도 창원시 마산회원구 양덕동12길 86 (양덕동)양덕초등학교,35.233885,128.588425
536389,일우아파트 어린이놀이터,경남 창원시 마산회원구 석전동146-14,경상남도 창원시 마산회원구 석전남23길 6 (석전동 일우아파트),1991-09-05,주택단지,경상남도 창원시 마산회원구 석전남23길 6 (석전동 일우아파트),35.226693,128.571
524231,살레시오성미유치원 어린이 놀이시설,,경상남도 창원시 의창구 의안로66번길 33 (소답동)살레시오성미유치원,1992-02-01,유치원,경상남도 창원시 의창구 의안로66번길 33 (소답동)살레시오성미유치원,35.2677662,128.6275949
503560,봉림초등학교 어린이 놀이이설,,경상남도 창원시 의창구 사림로16번길 21 (사림동)봉림초등학교,1992-03-01,학교,경상남도 창원시 의창구 사림로16번길 21 (사림동)봉림초등학교,35.2462974,128.6780379
515521,성아어린이집,경남 창원시 의창구 봉곡동119-1,경상남도 창원시 의창구 창이대로309번길 54 (봉곡동),1992-03-17,어린이집,경상남도 창원시 의창구 창이대로309번길 54 (봉곡동),35.2496157,128.6685337
12461,배진아파트 어린이놀이터,창원시 마산회원구 구암동 1323-1,경상남도 창원시 마산회원구 구암반계길 17 (구암동),1992-03-31,주택단지,경상남도 창원시 마산회원구 구암반계길 17 (구암동),35.2497182,128.6036029
5023,한효한마음코아아파트 어린이놀이터,창원시 의창구 도계동 329,경상남도 창원시 의창구 도계로50번길 6-46 (도계동),1992-10-01,주택단지,경상남도 창원시 의창구 도계로50번길 6-46 (도계동),35.2604378,128.6351003
5089,양덕경남아파트 어린이놀이터,창원시 마산회원구 양덕동 39-5,경상남도 창원시 마산회원구 양덕동17길 6-1 (양덕동),1992-12-01,주택단지,경상남도 창원시 마산회원구 양덕동17길 6-1 (양덕동),35.2337311,128.5903797
5022,서광아파트 어린이놀이터,창원시 의창구 동읍 용잠리 130,경상남도 창원시 의창구 동읍 의창대로915번길 29 (덕산서광아파트),1994-05-01,주택단지,경상남도 창원시 의창구 동읍 의창대로915번길 29 (덕산서광아파트),35.2816519,128.6897822
12425,대동차룡아파트 어린이놀이터,,경상남도 창원시 의창구 반계로 95 (팔용동 대동차룡아파트),1994-09-01,주택단지,경상남도 창원시 의창구 반계로 95 (팔용동 대동차룡아파트),35.253978,128.6154207
6843,한일타운1차아파트 101동 놀이터,창원시 마산회원구 양덕동 75-1,경상남도 창원시 마산회원구 양덕서8길 25 (양덕동 한일타운1차아파트),1994-11-25,주택단지,경상남도 창원시 마산회원구 양덕서8길 25 (양덕동 한일타운1차아파트),35.231681,128.5795456
6844,한일타운1차아파트 105동 놀이터,창원시 마산회원구 양덕동 75-1,경상남도 창원시 마산회원구 양덕서8길 25 (양덕동 한일타운1차아파트),1994-11-25,주택단지,경상남도 창원시 마산회원구 양덕서8길 25 (양덕동 한일타운1차아파트),35.231681,128.5795456
5007,극동아파트 어린이놀이터2,창원시 의창구 팔용동 124-1,경상남도 창원시 의창구 팔용로 446 (팔용동 극동아파트),1994-12-01,주택단지,경상남도 창원시 의창구 팔용로 446 (팔용동 극동아파트),35.2553129,128.6147007
12416,극동아파트 어린이놀이터3,,경상남도 창원시 의창구 팔용로 446 (팔용동 극동아파트),1994-12-01,주택단지,경상남도 창원시 의창구 팔용로 446 (팔용동 극동아파트),35.2553129,128.6147007
5091,일우근주아파트 어린이놀이터,,경상남도 창원시 마산회원구 석전북2길 64 (석전동 일우근주맨션),1994-12-28,주택단지,경상남도 창원시 마산회원구 석전북2길 64 (석전동 일우근주맨션),35.232335,128.568775
12395,토월대동아파트 제1놀이터,,경상남도 창원시 성산구 동산로 115 (상남동 대동아파트),1995-02-13,주택단지,경상남도 창원시 성산구 동산로 115 (상남동 대동아파트),35.2196206,128.6888555
12396,토월대동아파트 제2놀이터,,경상남도 창원시 성산구 동산로 115 (상남동 대동아파트),1995-02-13,주택단지,경상남도 창원시 성산구 동산로 115 (상남동 대동아파트),35.2196206,128.6888555
12397,토월대동아파트 제3놀이터,,경상남도 창원시 성산구 동산로 115 (상남동 대동아파트),1995-02-13,주택단지,경상남도 창원시 성산구 동산로 115 (상남동 대동아파트),35.2196206,128.6888555
12398,토월대동아파트 제4놀이터,,경상남도 창원시 성산구 동산로 115 (상남동 대동아파트),1995-02-13,주택단지,경상남도 창원시 성산구 동산로 115 (상남동 대동아파트),35.2196206,128.6888555
12399,토월대동아파트 제5놀이터,,경상남도 창원시 성산구 동산로 115 (상남동 대동아파트),1995-02-13,주택단지,경상남도 창원시 성산구 동산로 115 (상남동 대동아파트),35.2196206,128.6888555
12400,토월대동아파트 제6놀이터,,경상남도 창원시 성산구 동산로 115 (상남동 대동아파트),1995-02-13,주택단지,경상남도 창원시 성산구 동산로 115 (상남동 대동아파트),35.2196206,128.6888555
12401,토월대동아파트 제7놀이터,,경상남도 창원시 성산구 동산로 115 (상남동 대동아파트),1995-02-13,주택단지,경상남도 창원시 성산구 동산로 115 (상남동 대동아파트),35.2196206,128.6888555
12402,토월대동아파트 제8놀이터,,경상남도 창원시 성산구 동산로 115 (상남동 대동아파트),1995-02-13,주택단지,경상남도 창원시 성산구 동산로 115 (상남동 대동아파트),35.2196206,128.6888555
508604,이바돔감자탕(팔용동),경남 창원시 의창구 팔용동42-1 웰빙프라자 2층,경상남도 창원시 의창구 평산로 96 웰빙프라자 2층 (팔용동),1995-02-25,식품접객업소,경상남도 창원시 의창구 평산로 96 웰빙프라자 2층 (팔용동),35.2516385,128.6196834
12350,꽃무지풀무지유치원 어린이 놀이시설,,경상남도 창원시 성산구 창이대로707번길 8-15 (사파동)꽃무지풀무지유치원,1995-04-13,유치원,경상남도 창원시 성산구 창이대로707번길 8-15 (사파동)꽃무지풀무지유치원,35.2213046,128.7024315
6208,양덕우성아파트 110동 어린이놀이터,,경상남도 창원시 마산회원구 양덕옛2길 16 (양덕동 우성아파트),1995-06-25,주택단지,경상남도 창원시 마산회원구 양덕옛2길 16 (양덕동 우성아파트),35.228813,128.577248
6209,양덕우성아파트 어린이집 놀이터,,경상남도 창원시 마산회원구 양덕옛2길 16 (양덕동 우성아파트),1995-06-25,주택단지,경상남도 창원시 마산회원구 양덕옛2길 16 (양덕동 우성아파트),35.228813,128.577248
6210,양덕우성아파트 관리동 놀이터,,경상남도 창원시 마산회원구 양덕옛2길 16 (양덕동 우성아파트),1995-06-25,주택단지,경상남도 창원시 마산회원구 양덕옛2길 16 (양덕동 우성아파트),35.228813,128.577248
502841,하늘빛유치원 어린이 놀이시설,,경상남도 창원시 성산구 동산로 115 (상남동 대동아파트)하늘빛유치원,1995-06-29,유치원,경상남도 창원시 성산구 동산로 115 (상남동 대동아파트)하늘빛유치원,35.2196206,128.6888555
5006,춘광2차아파트 어린이놀이터,창원시 의창구 북면 신촌리 905-24,경상남도 창원시 의창구 북면 신촌본포로 12-15,1995-12-01,주택단지,경상남도 창원시 의창구 북면 신촌본포로 12-15,35.3467574,128.6090178
12348,명성어린이집곰돌이놀이터,경남 창원시 성산구 사파동 55-6,경상남도 창원시 성산구 비음로91번길 21 (사파동),1995-12-30,어린이집,경상남도 창원시 성산구 비음로91번길 21 (사파동),35.2269925,128.7030419
12270,두럭어린이공원,,경상남도 창원시 의창구 의안로50번길 17 (소답동),1996-01-01,도시공원,경상남도 창원시 의창구 의안로50번길 17 (소답동),35.2661553,128.6258576
12273,두리어린이공원,,경상남도 창원시 의창구 의창대로289번길 16-8 (소답동 금강빌라),1996-01-01,도시공원,경상남도 창원시 의창구 의창대로289번길 16-8 (소답동 금강빌라),35.2629646,128.6297745
12274,띠앗어린이공원,,경상남도 창원시 의창구 읍성로89번길 11 (소답동),1996-01-01,도시공원,경상남도 창원시 의창구 읍성로89번길 11 (소답동),35.2659487,128.6278646
6207,한일2차아파트 203동뒤 놀이터,창원시 마산회원구 양덕동 64-1,경상남도 창원시 마산회원구 양덕로 151 (양덕동 한일타운2차아파트),1996-05-23,주택단지,경상남도 창원시 마산회원구 양덕로 151 (양덕동 한일타운2차아파트),35.2313636,128.5817212
6842,한일2차아파트 208동앞 놀이터,창원시 마산회원구 양덕동 64-1,경상남도 창원시 마산회원구 양덕로 151 (양덕동 한일타운2차아파트),1996-05-23,주택단지,경상남도 창원시 마산회원구 양덕로 151 (양덕동 한일타운2차아파트),35.2313636,128.5817212
539412,지예슬유치원 어린이 놀이시설,,경상남도 창원시 마산회원구 회성동5길 6 (회성동)지예슬유치원,1996-09-30,유치원,경상남도 창원시 마산회원구 회성동5길 6 (회성동)지예슬유치원,35.2327065,128.5653022
516048,사회복지법인 금강어린이집,,경상남도 창원시 마산회원구 양덕로 151 (양덕동 한일타운2차아파트),1997-01-01,어린이집,경상남도 창원시 마산회원구 양덕로 151 (양덕동 한일타운2차아파트),35.2313636,128.5817212
516682,동읍자연어린이집 놀이시설,경남 창원시 의창구 동읍 화양리147-3,경상남도 창원시 의창구 동읍 동읍로503번길 10,1997-03-01,어린이집,경상남도 창원시 의창구 동읍 동읍로503번길 10,35.3110657,128.656522
518898,자여초등학교 어린이 놀이시설,,경상남도 창원시 의창구 동읍 자여로 135자여초등학교,1997-03-01,학교,경상남도 창원시 의창구 동읍 자여로 135자여초등학교,35.2718601,128.7059455
5038,동부산훼미리1차아파트 어린이놀이터,,경상남도 창원시 의창구 동읍 용정길46번길 29 (동부산훼미리타운1차)동부산훼미리타운1차,1997-12-31,주택단지,경상남도 창원시 의창구 동읍 용정길46번길 29 (동부산훼미리타운1차)동부산훼미리타운1차,35.2759955,128.7054528
5083,구암대동아파트 101동 놀이터,창원시 마산회원구 구암동 88,경상남도 창원시 마산회원구 구암남14길 18 (구암동 대동아파트),1998-01-05,주택단지,경상남도 창원시 마산회원구 구암남14길 18 (구암동 대동아파트),35.2496213,128.6003145
5084,구암대동아파트 107동 놀이터,창원시 마산회원구 구암동 88,경상남도 창원시 마산회원구 구암남14길 18 (구암동 대동아파트),1998-01-05,주택단지,경상남도 창원시 마산회원구 구암남14길 18 (구암동 대동아파트),35.2496213,128.6003145
12449,구암대동아파트 109동 놀이터,,경상남도 창원시 마산회원구 구암남16길 54 (구암동 구암대동타운),1998-01-05,주택단지,경상남도 창원시 마산회원구 구암남16길 54 (구암동 구암대동타운),35.2489356,128.5998281
12349,에덴어린이집놀이터,경남 창원시 성산구 반림동 1,경상남도 창원시 성산구 외동반림로 245 (반림동),1998-02-24,어린이집,경상남도 창원시 성산구 외동반림로 245 (반림동),35.2392144,128.679175
551476,창원중앙어린이집,,경상남도 창원시 성산구 외동반림로126번길 56 (중앙동)창원중앙어린이집,1998-05-23,어린이집,경상남도 창원시 성산구 외동반림로126번길 56 (중앙동)창원중앙어린이집,35.2269917,128.6768369
5008,북면대호아파트 어린이놀이터,,경상남도 창원시 의창구 북면 천주로 1053 (대호아파트),1998-06-01,주택단지,경상남도 창원시 의창구 북면 천주로 1053 (대호아파트),35.3453871,128.6057288
12419,동부산훼미리2차아파트 어린이놀이터,,경상남도 창원시 의창구 동읍 용정길32번길 14 (동부산훼미리타운2차),1998-10-24,주택단지,경상남도 창원시 의창구 동읍 용정길32번길 14 (동부산훼미리타운2차),35.2773335,128.7028262
515754,달나라어린이집놀이터,경남 창원시 마산회원구 회원동672-19,경상남도 창원시 마산회원구 교방시장1길 57 (회원동),1999-01-14,어린이집,경상남도 창원시 마산회원구 교방시장1길 57 (회원동),35.2172088,128.5639652
5076,대상아파트 어린이놀이터,창원시 마산회원구 양덕동 96-13,경상남도 창원시 마산회원구 양덕북17길 48 (양덕동),1999-02-10,주택단지,경상남도 창원시 마산회원구 양덕북17길 48 (양덕동),35.2356679,128.5833
32193,소답초등학교 어린이 놀이시설,,경상남도 창원시 의창구 의창대로317번길 41 (소답동)소답초등학교,1999-03-01,학교,경상남도 창원시 의창구 의창대로317번길 41 (소답동)소답초등학교,35.2658012,128.6293403
6196,북면신우아파트 어린이놀이터,창원시 의창구 북면 신촌리 905-6,경상남도 창원시 의창구 북면 신촌본포로 12-10 (신우아파트),1999-05-06,주택단지,경상남도 창원시 의창구 북면 신촌본포로 12-10 (신우아파트),35.3470737,128.6084775
12418,동부산훼미리3차아파트 어린이놀이터,,경상남도 창원시 의창구 동읍 용정길46번길 32-1,1999-05-10,주택단지,경상남도 창원시 의창구 동읍 용정길46번길 32-1,35.2757788,128.7049953
12426,동부산훼미리4차아파트 어린이놀이터,창원시 의창구 동읍 송정리 23-8,경상남도 창원시 의창구 동읍 자여로65번길 14,1999-06-01,주택단지,경상남도 창원시 의창구 동읍 자여로65번길 14,35.2772356,128.7019284
4876,백옥어린이공원,,경상남도 창원시 의창구 도계두리길6번길 35 (도계동 상아빌라),2000-01-01,도시공원,경상남도 창원시 의창구 도계두리길6번길 35 (도계동 상아빌라),35.2616618,128.6356405
4878,기쁨어린이공원,,경상남도 창원시 의창구 우곡로71번길 18 (명서동),2000-01-01,도시공원,경상남도 창원시 의창구 우곡로71번길 18 (명서동),35.2463786,128.6408957
4879,새싹어린이공원,,경상남도 창원시 의창구 원이대로210번길 67-5 (명서동),2000-01-01,도시공원,경상남도 창원시 의창구 원이대로210번길 67-5 (명서동),35.2423077,128.6438906
4880,정다운어린이공원,,경상남도 창원시 의창구 명서로89번길 14-26 (명서동),2000-01-01,도시공원,경상남도 창원시 의창구 명서로89번길 14-26 (명서동),35.2486812,128.650552
4881,한마음어린이공원,의창구 명서동 174-9,경상남도 창원시 의창구 명서로123번길 9 (명서동),2000-01-01,도시공원,경상남도 창원시 의창구 명서로123번길 9 (명서동),35.2459459,128.6486329
4882,미리내어린이공원,,경상남도 창원시 의창구 원이대로219번길 12 (명서동),2000-01-01,도시공원,경상남도 창원시 의창구 원이대로219번길 12 (명서동),35.2470421,128.6445695
4883,이슬어린이공원,,경상남도 창원시 의창구 명서로 65-14 (명서동),2000-01-01,도시공원,경상남도 창원시 의창구 명서로 65-14 (명서동),35.2519576,128.6477185
4884,여우비어린이공원,,경상남도 창원시 성산구 원이대로552번길 23-4 (중앙동),2000-01-01,도시공원,경상남도 창원시 성산구 원이대로552번길 23-4 (중앙동),35.2277631,128.6744947
12277,미르말어린이공원,,경상남도 창원시 의창구 팔용로416번길 6-1 (팔용동),2000-01-01,도시공원,경상남도 창원시 의창구 팔용로416번길 6-1 (팔용동),35.253243,128.6126768
12278,마루어린이공원,,경상남도 창원시 의창구 팔용로443번길 23 (팔용동),2000-01-01,도시공원,경상남도 창원시 의창구 팔용로443번길 23 (팔용동),35.2571153,128.6114409
12279,소망어린이공원,,경상남도 창원시 의창구 팔용로415번길 19 (팔용동),2000-01-01,도시공원,경상남도 창원시 의창구 팔용로415번길 19 (팔용동),35.2550312,128.6095403
12283,목련어린이공원,,경상남도 창원시 의창구 도계로17번길 9 (도계동),2000-01-01,도시공원,경상남도 창원시 의창구 도계로17번길 9 (도계동),35.2608936,128.6335043
12284,진달래어린이공원,,경상남도 창원시 의창구 하남천서길51번길 15 (도계동 유성빌라),2000-01-01,도시공원,경상남도 창원시 의창구 하남천서길51번길 15 (도계동 유성빌라),35.262875,128.639125
12285,개나리어린이공원,의창구 도계동 358-1,경상남도 창원시 의창구 하남천동길16번길 3-19 (도계동),2000-01-01,도시공원,경상남도 창원시 의창구 하남천동길16번길 3-19 (도계동),35.2604979,128.6398136
12289,한우리어린이공원,,경상남도 창원시 의창구 태복산로31번길 25 (도계동),2000-01-01,도시공원,경상남도 창원시 의창구 태복산로31번길 25 (도계동),35.25583,128.6398234
12291,벼리어린이공원,,경상남도 창원시 의창구 태복산로11번길 3 (도계동),2000-01-01,도시공원,경상남도 창원시 의창구 태복산로11번길 3 (도계동),35.2532883,128.6392797
12292,만남어린이공원,,경상남도 창원시 의창구 창이대로107번길 33 (명서동),2000-01-01,도시공원,경상남도 창원시 의창구 창이대로107번길 33 (명서동),35.2428417,128.6473069
12293,석류어린이공원,,경상남도 창원시 의창구 창이대로165번길 7 (봉곡동),2000-01-01,도시공원,경상남도 창원시 의창구 창이대로165번길 7 (봉곡동),35.2447097,128.6552233
12296,향나무어린이공원,,경상남도 창원시 의창구 봉곡로120번길 26 (봉곡동),2000-01-01,도시공원,경상남도 창원시 의창구 봉곡로120번길 26 (봉곡동),35.2470545,128.6675867
12297,대나무어린이공원,,경상남도 창원시 의창구 사림로29번길 21-4 (봉곡동),2000-01-01,도시공원,경상남도 창원시 의창구 사림로29번길 21-4 (봉곡동),35.2478654,128.6737846
12299,사림어린이공원,,경상남도 창원시 의창구 사림로99번길 44-11 (사림동),2000-01-01,도시공원,경상남도 창원시 의창구 사림로99번길 44-11 (사림동),35.2485495,128.6857462
12304,제31호어린이공원,,경상남도 창원시 성산구 충혼로201번길 7-10 (반지동),2000-01-01,도시공원,경상남도 창원시 성산구 충혼로201번길 7-10 (반지동),35.2413016,128.6649706
12305,금강어린이공원,,경상남도 창원시 성산구 반송로82번길 8-11 (반지동),2000-01-01,도시공원,경상남도 창원시 성산구 반송로82번길 8-11 (반지동),35.2387286,128.6644399
12306,비둘기어린이공원,성산구 중앙동 34-1,경상남도 창원시 성산구 외동반림로54번길 13-14 (중앙동),2000-01-01,도시공원,경상남도 창원시 성산구 외동반림로54번길 13-14 (중앙동),35.2243659,128.6744976
12318,개월어린이공원,,경상남도 창원시 성산구 창이대로706번길 15-12 (사파동),2000-01-01,도시공원,경상남도 창원시 성산구 창이대로706번길 15-12 (사파동),35.2205582,128.6992719
12319,강정어린이공원,성산구 사파동 115,경상남도 창원시 성산구 창이대로684번길 30 (사파동),2000-01-01,도시공원,경상남도 창원시 성산구 창이대로684번길 30 (사파동),35.2223563,128.6968637
35111,평산초등학교 병설유치원 어린이 놀이시설,,경상남도 창원시 의창구 사화로104번길 17 (팔용동)평산초등학교 병설유치원,2000-02-01,유치원,경상남도 창원시 의창구 사화로104번길 17 (팔용동)평산초등학교 병설유치원,35.2508613,128.6169793
504561,평산초등학교 어린이 놀이시설,,경상남도 창원시 의창구 사화로104번길 17 (팔용동)펑산초등학교,2000-03-01,학교,경상남도 창원시 의창구 사화로104번길 17 (팔용동)펑산초등학교,35.2508613,128.6169793
508242,소명어린이집 놀이터,,경상남도 창원시 마산회원구 소계천서길 103 (구암동),2000-05-01,어린이집,경상남도 창원시 마산회원구 소계천서길 103 (구암동),35.2590871,128.5959261
5100,구암대동2차아파트 201동 놀이터,창원시 마산회원구 구암동 29-1,경상남도 창원시 마산회원구 구암남5길 60 (구암동 대동아파트),2000-08-11,주택단지,경상남도 창원시 마산회원구 구암남5길 60 (구암동 대동아파트),35.246411,128.593062
5101,구암대동2차아파트 202동 놀이터,창원시 마산회원구 구암동 29-1,경상남도 창원시 마산회원구 구암남5길 60 (구암동 대동아파트),2000-08-11,주택단지,경상남도 창원시 마산회원구 구암남5길 60 (구암동 대동아파트),35.246411,128.593062
5040,원풍아파트 어린이놀이터(501동),창원시 의창구 팔용동 76,경상남도 창원시 의창구 사화로90번길 6 (팔용동),2000-09-01,주택단지,경상남도 창원시 의창구 사화로90번길 6 (팔용동),35.2523572,128.6153362
5041,원풍아파트 어린이놀이터(502동),창원시 의창구 팔용동 69,경상남도 창원시 의창구 사화로90번길 20 (팔용동),2000-09-01,주택단지,경상남도 창원시 의창구 사화로90번길 20 (팔용동),35.2514712,128.6147643
5088,신우아파트 어린이놀이터,창원시 마산회원구 구암동 1212,경상남도 창원시 마산회원구 구암남21길 3 (구암동 신우아파트),2001-01-01,주택단지,경상남도 창원시 마산회원구 구암남21길 3 (구암동 신우아파트),35.2527191,128.6021557
508323,계명어린이집놀이터,,경상남도 창원시 마산회원구 팔용로 23 (양덕동),2001-11-13,어린이집,경상남도 창원시 마산회원구 팔용로 23 (양덕동),35.2319643,128.5859778
520202,아셀어린이집놀이터,,경상남도 창원시 마산회원구 양덕북1길 23 (양덕동),2001-12-07,어린이집,경상남도 창원시 마산회원구 양덕북1길 23 (양덕동),35.2316485,128.5843626
502931,석화유치원 어린이 놀이시설,,경상남도 창원시 마산회원구 구암반계길 24 (구암동)석화유치원,2002-01-01,유치원,경상남도 창원시 마산회원구 구암반계길 24 (구암동)석화유치원,35.2496085,128.6040051
502989,세화유치원 어린이 놀이시설,,경상남도 창원시 마산회원구 양덕동14길 5 (양덕동)세화유치원,2002-02-10,유치원,경상남도 창원시 마산회원구 양덕동14길 5 (양덕동)세화유치원,35.2319648,128.5867446
518857,창원한별유치원 어린이 놀이시설,,경상남도 창원시 의창구 봉곡로23번길 2 (봉곡동)창원한별유치원,2002-02-27,유치원,경상남도 창원시 의창구 봉곡로23번길 2 (봉곡동)창원한별유치원,35.248301,128.6626162
7163,대림하이빌아파트 어린이놀이터,창원시 마산회원구 양덕동 161-1,경상남도 창원시 마산회원구 양덕동2길 76 (양덕동),2002-05-07,주택단지,경상남도 창원시 마산회원구 양덕동2길 76 (양덕동),35.224643,128.589563
502501,상북초등학교 병설유치원 어린이 놀이시설,,경상남도 창원시 의창구 지귀로60번길 13-13 (봉곡동)상북초등학교 병설유치원,2002-05-20,유치원,경상남도 창원시 의창구 지귀로60번길 13-13 (봉곡동)상북초등학교 병설유치원,35.246776,128.653288
502837,개나리유치원 어린이 놀이시설,,경상남도 창원시 마산회원구 양덕북12길 38 (양덕동)개나리유치원,2002-08-02,유치원,경상남도 창원시 마산회원구 양덕북12길 38 (양덕동)개나리유치원,35.2350995,128.5856486
508234,조이 어린이집 놀이터,,경상남도 창원시 마산회원구 양덕동12길 27 (양덕동),2002-11-25,어린이집,경상남도 창원시 마산회원구 양덕동12길 27 (양덕동),35.230751,128.5860627
535328,샘보어린이집놀이터,,경상남도 창원시 마산회원구 팔용로 141 (합성동),2002-11-26,어린이집,경상남도 창원시 마산회원구 팔용로 141 (합성동),35.241667,128.5901085
4886,신월어린이공원,,경상남도 창원시 의창구 창이대로570번길 13-12 (신월동),2003-01-01,도시공원,경상남도 창원시 의창구 창이대로570번길 13-12 (신월동),35.2328223,128.6943964
12298,꿈동산어린이공원,,경상남도 창원시 의창구 지귀로73번길 18-10 (봉곡동)앞 어린이공원,2003-01-01,도시공원,경상남도 창원시 의창구 지귀로73번길 18-10 (봉곡동)앞 어린이공원,35.2484832,128.6554756
12315,신덕어린이공원,,경상남도 창원시 성산구 비음로 7-16 (사파동),2003-01-01,도시공원,경상남도 창원시 성산구 비음로 7-16 (사파동),35.229869,128.6970967
539468,한일3차아파트 제1놀이터(중앙),경남 창원시 마산회원구 양덕동910번지,경상남도 창원시 마산회원구 삼호로 151 (양덕동),2003-01-18,주택단지,경상남도 창원시 마산회원구 삼호로 151 (양덕동),35.2266774,128.5759867
539472,한일3차아파트 제2놀이터(305동 뒤),경남 창원시 마산회원구 양덕동910번지,경상남도 창원시 마산회원구 삼호로 151 (양덕동),2003-01-18,주택단지,경상남도 창원시 마산회원구 삼호로 151 (양덕동),35.2266774,128.5759867
504622,마산중앙초등학교 어린이 놀이시설,,경상남도 창원시 마산회원구 팔용로 280 (구암동)마산중앙초등학교,2003-10-08,학교,경상남도 창원시 마산회원구 팔용로 280 (구암동)마산중앙초등학교,35.248385,128.602625
5106,양덕신성미소지움아파트 어린이놀이터,창원시 마산회원구 양덕동 102-1,경상남도 창원시 마산회원구 양덕북17길 73 (양덕동),2003-12-09,주택단지,경상남도 창원시 마산회원구 양덕북17길 73 (양덕동),35.2341988,128.583707
508283,해든미래클어린이집놀이터,,경상남도 창원시 마산회원구 회원동29길 63 (회원동),2003-12-29,어린이집,경상남도 창원시 마산회원구 회원동29길 63 (회원동),35.2186382,128.5755083
503015,삼학사금강유치원 어린이 놀이시설,,경상남도 창원시 마산회원구 무학로 559 (회원동)삼학사금강유치원,2004-02-02,유치원,경상남도 창원시 마산회원구 무학로 559 (회원동)삼학사금강유치원,35.2178628,128.5603481
503452,도계초등학교 어린이놀이시설(병설유치원겸용),,경상남도 창원시 의창구 하남천동길 10 (도계동)도계초등학교,2004-02-26,학교,경상남도 창원시 의창구 하남천동길 10 (도계동)도계초등학교,35.2593439,128.6394645
502396,명도초등학교 병설유치원 어린이 놀이시설,,경상남도 창원시 의창구 도계두리길 233 (명곡동)명도초등학교 병설유치원,2004-03-01,유치원,경상남도 창원시 의창구 도계두리길 233 (명곡동)명도초등학교 병설유치원,35.256212,128.644052
503516,명곡초등학교 어린이 놀이시설(병설유치원겸용),,경상남도 창원시 의창구 우곡로159번길 22-11 (명서동),2004-03-01,학교,경상남도 창원시 의창구 우곡로159번길 22-11 (명서동),35.242643,128.6449
503521,명도초등학교 어린이 놀이시설,,경상남도 창원시 의창구 도계두리길 233 (명곡동)명도초등학교,2004-03-01,학교,경상남도 창원시 의창구 도계두리길 233 (명곡동)명도초등학교,35.256212,128.644052
514953,즐거운성아어린이집,,경상남도 창원시 의창구 북면 천주로 1251즐거운성아어린이집,2004-03-08,어린이집,경상남도 창원시 의창구 북면 천주로 1251즐거운성아어린이집,35.3585691,128.6168019
7302,늘푸른마을코오롱아파트 어린이놀이터,창원시 의창구 봉림동 66,경상남도 창원시 의창구 지귀로95번길 7 (봉곡동 늘푸른마을코오롱아파트),2004-06-20,주택단지,경상남도 창원시 의창구 지귀로95번길 7 (봉곡동 늘푸른마을코오롱아파트),35.247893,128.657189
516662,아람우리꽃들유치원 어린이 놀이시설,,경상남도 창원시 의창구 읍성로 12-10 (서상동)아람우리꽃들유치원,2004-08-03,유치원,경상남도 창원시 의창구 읍성로 12-10 (서상동)아람우리꽃들유치원,35.264462,128.6191174
524230,창원유치원 어린이 놀이시설,,경상남도 창원시 의창구 의안로59번길 10 (소답동)창원유치원,2004-09-01,유치원,경상남도 창원시 의창구 의안로59번길 10 (소답동)창원유치원,35.2668997,128.622665
503535,봉강초등학교 어린이놀이시설(병설유치원겸용),,경상남도 창원시 의창구 동읍 동읍로 1131-3봉강초등학교,2004-09-20,학교,경상남도 창원시 의창구 동읍 동읍로 1131-3봉강초등학교,35.3507659,128.6560355
6198,송정주공아파트 유아놀이터(복리동옆),창원시 의창구 동읍 송정리 21-1,경상남도 창원시 의창구 동읍 용정길 26 (송정주공아파트),2004-10-27,주택단지,경상남도 창원시 의창구 동읍 용정길 26 (송정주공아파트),35.2780077,128.7018541
6836,송정주공아파트 어린이놀이터1(105동앞),창원시 의창구 동읍 송정리 21-1,경상남도 창원시 의창구 동읍 용정길 26 (송정주공아파트),2004-10-27,주택단지,경상남도 창원시 의창구 동읍 용정길 26 (송정주공아파트),35.2780077,128.7018541
7154,송정주공아파트 어린이놀이터2(108동앞),창원시 의창구 동읍 송정리 21-1,경상남도 창원시 의창구 동읍 용정길 26 (송정주공아파트),2004-10-27,주택단지,경상남도 창원시 의창구 동읍 용정길 26 (송정주공아파트),35.2780077,128.7018541
547792,한일타운4차아파트 403동놀이터,,경상남도 창원시 마산회원구 양덕서로 45 (양덕동한일4차아파트),2004-12-01,주택단지,경상남도 창원시 마산회원구 양덕서로 45 (양덕동한일4차아파트),35.22861,128.580187
547793,한일타운4차아파트 405동놀이터,,경상남도 창원시 마산회원구 양덕서로 45 (양덕동한일4차아파트),2004-12-01,주택단지,경상남도 창원시 마산회원구 양덕서로 45 (양덕동한일4차아파트),35.22861,128.580187
547794,한일타운4차아파트 407동놀이터,,경상남도 창원시 마산회원구 양덕서로 45 (양덕동한일4차아파트),2004-12-01,주택단지,경상남도 창원시 마산회원구 양덕서로 45 (양덕동한일4차아파트),35.22861,128.580187
5016,흥한웰가아파트 어린이놀이터2,창원시 의창구 동정동 277,경상남도 창원시 의창구 천주로 33 (동정동),2004-12-04,주택단지,경상남도 창원시 의창구 천주로 33 (동정동),35.2645142,128.6172265
6184,흥한웰가아파트 어린이놀이터1,창원시 의창구 동정동 277,경상남도 창원시 의창구 천주로 33 (동정동),2004-12-04,주택단지,경상남도 창원시 의창구 천주로 33 (동정동),35.2645142,128.6172265
549008,성진까치빌라트5차 어린이놀이터,,경상남도 창원시 의창구 동읍 용정길46번길 51성진까치빌라트5차,2004-12-08,주택단지,경상남도 창원시 의창구 동읍 용정길46번길 51성진까치빌라트5차,35.2741512,128.7057498
12287,장미어린이공원,,경상남도 창원시 의창구 원이대로69번길 30-14 (도계동 건우맨션)건우맨션 옆 어린이공원,2005-01-01,도시공원,경상남도 창원시 의창구 원이대로69번길 30-14 (도계동 건우맨션)건우맨션 옆 어린이공원,35.2575024,128.6381772
12290,풀잎어린이공원,,경상남도 창원시 의창구 태복산로11번길 33 (도계동),2005-01-01,도시공원,경상남도 창원시 의창구 태복산로11번길 33 (도계동),35.255555,128.6374269
12316,고산마을어린이공원,,경상남도 창원시 성산구 비음로45번길 14-10 (사파동),2005-01-01,도시공원,경상남도 창원시 성산구 비음로45번길 14-10 (사파동),35.2287006,128.7018071
524221,현대예닮유치원 어린이 놀이시설,,경상남도 창원시 성산구 반송로 177 (반림동 현대아파트)현대예닮유치원,2005-01-01,유치원,경상남도 창원시 성산구 반송로 177 (반림동 현대아파트)현대예닮유치원,35.2371939,128.675117
504454,일동초등학교 어린이놀이시설(병설유치원겸용),,경상남도 창원시 의창구 대산면 대산북로 461일동초등학교,2005-01-14,학교,경상남도 창원시 의창구 대산면 대산북로 461일동초등학교,35.3687733,128.688232
508515,바른손어린이집놀이터,,경상남도 창원시 마산회원구 구암북15길 49 (구암동),2005-01-14,어린이집,경상남도 창원시 마산회원구 구암북15길 49 (구암동),35.2553044,128.5947693
503423,내동초등학교 어린이 놀이시설,,경상남도 창원시 성산구 두대로 185 (중앙동)내동초등학교,2005-03-18,학교,경상남도 창원시 성산구 두대로 185 (중앙동)내동초등학교,35.226051,128.662287
508231,청우어린이집놀이터,,경상남도 창원시 마산회원구 회원남33길 32,2005-09-09,어린이집,경상남도 창원시 마산회원구 회원남33길 32,35.2183284,128.5620665
5102,한일타운 어린이놀이터,창원시 마산회원구 합성동 340-5,경상남도 창원시 마산회원구 팔용로 76 (합성동),2005-09-25,주택단지,경상남도 창원시 마산회원구 팔용로 76 (합성동),35.2359088,128.5893938
504648,온천초등학교 어린이 놀이시설,,경상남도 창원시 의창구 북면 신리길30번길 17온천초등학교,2005-09-30,학교,경상남도 창원시 의창구 북면 신리길30번길 17온천초등학교,35.3495256,128.6052364
502859,동성아이별꽃유치원 어린이 놀이시설,,경상남도 창원시 성산구 창이대로 737 (사파동 사파동성아파트),2005-10-09,유치원,경상남도 창원시 성산구 창이대로 737 (사파동 사파동성아파트),35.2194857,128.7038987
28574,석전초등학교 어린이 놀이시설,,경상남도 창원시 마산회원구 석전동로 8 (석전동)석전초등학교,2005-10-24,학교,경상남도 창원시 마산회원구 석전동로 8 (석전동)석전초등학교,35.2322621,128.5761502
538290,석전초등학교 병설유치원 어린이 놀이시설,,경상남도 창원시 마산회원구 석전동로 8 (석전동)석전초등학교 병설유치원,2005-10-24,유치원,경상남도 창원시 마산회원구 석전동로 8 (석전동)석전초등학교 병설유치원,35.2322621,128.5761502
514909,창원시립북면어린이집,경남 창원시 의창구 북면 신촌리582-2,경상남도 창원시 의창구 북면 천주로1128번길 7,2005-12-02,어린이집,경상남도 창원시 의창구 북면 천주로1128번길 7,35.3506975,128.6089705
5020,대한아파트 어린이놀이터,창원시 의창구 동읍 신방리 52,경상남도 창원시 의창구 동읍 신방로 17 (대한아파트),2005-12-22,주택단지,경상남도 창원시 의창구 동읍 신방로 17 (대한아파트),35.285934,128.6832121
12271,고향의봄어린이공원,,경상남도 창원시 의창구 의안로66번길 32 (소답동 성주빌라),2006-01-01,도시공원,경상남도 창원시 의창구 의안로66번길 32 (소답동 성주빌라),35.2673653,128.6274765
12272,소답어린이공원,,경상남도 창원시 의창구 의안로2번길 19 (소답동),2006-01-01,도시공원,경상남도 창원시 의창구 의안로2번길 19 (소답동),35.2618247,128.6259205
12288,매화어린이공원,,경상남도 창원시 의창구 도계로83번길 10-12 (도계동 신우빌라),2006-01-01,도시공원,경상남도 창원시 의창구 도계로83번길 10-12 (도계동 신우빌라),35.2574288,128.6405025
12295,봉곡중앙어린이공원,의창구 봉곡동 106,경상남도 창원시 의창구 봉곡로68번길 16 (봉곡동),2006-01-01,도시공원,경상남도 창원시 의창구 봉곡로68번길 16 (봉곡동),35.247886,128.666457
12300,공룡어린이공원,,경상남도 창원시 의창구 사림로71번길 14-8 (사림동),2006-01-01,도시공원,경상남도 창원시 의창구 사림로71번길 14-8 (사림동),35.2470798,128.6812119
12317,구지어린이공원,,경상남도 창원시 성산구 창이대로707번길 12-20 (사파동),2006-01-01,도시공원,경상남도 창원시 성산구 창이대로707번길 12-20 (사파동),35.2213073,128.7026737
12286,국화어린이공원,,경상남도 창원시 의창구 도계로50번길 15-19 (도계동),2006-01-02,도시공원,경상남도 창원시 의창구 도계로50번길 15-19 (도계동),35.2591882,128.6364871
502917,고요숲속샘터유치원 어린이 놀이시설,,경상남도 창원시 의창구 동읍 동읍로132번길 20-6고요숲속샘터유치원,2006-02-01,유치원,경상남도 창원시 의창구 동읍 동읍로132번길 20-6고요숲속샘터유치원,35.2870002,128.680683
503537,봉덕초등학교 어린이 놀이시설,,경상남도 창원시 마산회원구 봉덕1길 14 (봉암동),2006-05-24,학교,경상남도 창원시 마산회원구 봉덕1길 14 (봉암동),35.222535,128.594538
503531,반송초등학교 어린이 놀이시설,,경상남도 창원시 성산구 반송로 133 (반림동)반송초등학교,2006-07-18,학교,경상남도 창원시 성산구 반송로 133 (반림동)반송초등학교,35.237368,128.670725
515772,키즈파크(뉴코아아웃렛 창원점),경남 창원시 의창구 팔용동30-1,경상남도 창원시 의창구 창원대로397번길 6 (팔용동),2006-09-05,대규모점포,경상남도 창원시 의창구 창원대로397번길 6 (팔용동),35.2345063,128.6421915
6217,중앙하이츠아파트 어린이놀이터,창원시 마산회원구 구암동 51-1,경상남도 창원시 마산회원구 팔용로 215 (구암동),2006-09-22,주택단지,경상남도 창원시 마산회원구 팔용로 215 (구암동),35.2473345,128.5946649
5005,성진3차아파트 어린이놀이터,창원시 의창구 동읍 용정리 20-9,경상남도 창원시 의창구 동읍 용정길46번길 49-1 (성진3차아파트),2006-10-01,주택단지,경상남도 창원시 의창구 동읍 용정길46번길 49-1 (성진3차아파트),35.2747919,128.7055244
502827,하천초등학교 병설유치원 놀이시설,,경상남도 창원시 의창구 북면 하천로 145하천초등학교 병설유치원,2006-11-02,유치원,경상남도 창원시 의창구 북면 하천로 145하천초등학교 병설유치원,35.3694633,128.6042148
502529,신방초등학교 어린이놀이시설(병설유치원겸용),,경상남도 창원시 의창구 동읍 동읍로 121-11신방초등학교,2006-11-03,유치원,경상남도 창원시 의창구 동읍 동읍로 121-11신방초등학교,35.2871159,128.6779477
502589,온천초등학교 병설유치원 어린이 놀이시설,,경상남도 창원시 의창구 북면 신리길30번길 17온천초등학교 병설유치원,2006-11-13,유치원,경상남도 창원시 의창구 북면 신리길30번길 17온천초등학교 병설유치원,35.3495256,128.6052364
503010,영림푸른솔유치원 어린이 놀이시설,,경상남도 창원시 의창구 동읍 자여로93번길 19-7영림푸른솔유치원,2006-11-17,유치원,경상남도 창원시 의창구 동읍 자여로93번길 19-7영림푸른솔유치원,35.2758936,128.7027318
524579,원흥사금강유치원 어린이 놀이시설,,경상남도 창원시 의창구 원이대로114번길 17 (도계동)원흥사금강유치원,2006-12-01,유치원,경상남도 창원시 의창구 원이대로114번길 17 (도계동)원흥사금강유치원,35.2516685,128.6362686
504599,경남혜림학교 어린이 놀이시설,,경상남도 창원시 마산회원구 합성북2길 48 (합성동)경남혜림학교,2006-12-19,학교,경상남도 창원시 마산회원구 합성북2길 48 (합성동)경남혜림학교,35.2436929,128.5801875
503427,대산초등학교 어린이 놀이시설,,경상남도 창원시 의창구 대산면 진산대로 442-7대산초등학교,2006-12-31,학교,경상남도 창원시 의창구 대산면 진산대로 442-7대산초등학교,35.3402012,128.7098057
4877,믿음어린이공원,,경상남도 창원시 의창구 원이대로150번길 12 (명서동),2007-01-01,도시공원,경상남도 창원시 의창구 원이대로150번길 12 (명서동),35.2497772,128.6387348
12294,단풍어린이공원,의창구 봉곡동 96-2,경상남도 창원시 의창구 봉곡로24번길 9-20 (봉곡동),2007-01-01,도시공원,경상남도 창원시 의창구 봉곡로24번길 9-20 (봉곡동),35.2483486,128.6647478
12302,퇴촌천어린이공원,,경상남도 창원시 의창구 용지로289번길 50 (사림동),2007-01-01,도시공원,경상남도 창원시 의창구 용지로289번길 50 (사림동),35.2416174,128.6857847
12303,느티어린이공원,,경상남도 창원시 의창구 창이대로369번길 28 (사림동),2007-01-01,도시공원,경상남도 창원시 의창구 창이대로369번길 28 (사림동),35.246033,128.6786036
12311,푸르미어린이공원,,경상남도 창원시 성산구 원이대로682번길 21 (상남동),2007-01-01,도시공원,경상남도 창원시 성산구 원이대로682번길 21 (상남동),35.2212186,128.6865915
12325,신리어린이공원,,경상남도 창원시 의창구 북면 신리길35번길 5,2007-01-01,도시공원,경상남도 창원시 의창구 북면 신리길35번길 5,35.3478398,128.6038965
515686,반송공원(현대A'뒤),,경상남도 창원시 성산구 반송로 177 (반림동 현대아파트),2007-01-01,도시공원,경상남도 창원시 성산구 반송로 177 (반림동 현대아파트),35.2371939,128.675117
515691,반송공원(럭키A'뒤),,경상남도 창원시 성산구 반송로 105 (반림동 럭키반림아파트),2007-01-01,도시공원,경상남도 창원시 성산구 반송로 105 (반림동 럭키반림아파트),35.2388973,128.6683376
515696,명서공원,,경상남도 창원시 의창구 우곡로 133-1 (명서동)앞 명서공원,2007-01-01,도시공원,경상남도 창원시 의창구 우곡로 133-1 (명서동)앞 명서공원,35.2419663,128.6401924
518861,현대배꽃유치원 어린이 놀이시설,,경상남도 창원시 성산구 외동반림로 219 (반림동 현대아파트)현대배꽃유치원,2007-01-01,유치원,경상남도 창원시 성산구 외동반림로 219 (반림동 현대아파트)현대배꽃유치원,35.2381833,128.676517
12366,창원시립사림어린이집,경남 창원시 의창구 사림동80-8 (창이대로397번길-17),경상남도 창원시 의창구 창이대로397번길 17 (사림동),2007-01-26,어린이집,경상남도 창원시 의창구 창이대로397번길 17 (사림동),35.2444812,128.6806863
502759,중동초등학교 병설유치원 어린이 놀이시설,,경상남도 창원시 의창구 의창대로238번길 14 (서상동)중동초등학교 병설유치원,2007-02-01,유치원,경상남도 창원시 의창구 의창대로238번길 14 (서상동)중동초등학교 병설유치원,35.2602167,128.6230347
524234,아름다운성아유치원 어린이 놀이시설,,경상남도 창원시 의창구 북면 천주로 1249성아온천유치원,2007-02-01,유치원,경상남도 창원시 의창구 북면 천주로 1249성아온천유치원,35.3584605,128.6166791
518878,중동초등학교 어린이 놀이시설,,경상남도 창원시 의창구 의창대로238번길 14 (서상동)중동초등학교,2007-03-01,학교,경상남도 창원시 의창구 의창대로238번길 14 (서상동)중동초등학교,35.2602167,128.6230347
504638,산호초등학교 어린이놀이시설(병설유치원겸용),,경상남도 창원시 마산합포구 회원동북로 53 (산호동)산호초등학교,2007-03-29,학교,경상남도 창원시 마산합포구 회원동북로 53 (산호동)산호초등학교,35.219743,128.579475
516670,햇살나무어린이집 놀이시설,,경상남도 창원시 의창구 동읍 동읍로83번길 3,2007-03-31,어린이집,경상남도 창원시 의창구 동읍 동읍로83번길 3,35.2835337,128.6819933
515923,내동녹지,,경상남도 창원시 성산구 두대로 259-5 (내동),2007-05-08,도시공원,경상남도 창원시 성산구 두대로 259-5 (내동),35.2209436,128.6680211
6169,현대산업아파트 어린이놀이터(112동뒤),창원시 성산구 반림동 3-1,경상남도 창원시 성산구 외동반림로 219 (반림동 현대아파트),2007-06-01,주택단지,경상남도 창원시 성산구 외동반림로 219 (반림동 현대아파트),35.2381833,128.676517
6827,현대산업아파트 어린이놀이터(113동옆),창원시 성산구 반림동 3-1,경상남도 창원시 성산구 외동반림로 219  (반림동 현대아파트),2007-06-01,주택단지,경상남도 창원시 성산구 외동반림로 219  (반림동 현대아파트),35.2381833,128.676517
12392,현대산업아파트 어린이놀이터(108동앞),,경상남도 창원시 성산구 외동반림로 219 (반림동 현대아파트),2007-06-01,주택단지,경상남도 창원시 성산구 외동반림로 219 (반림동 현대아파트),35.2381833,128.676517
532910,창원중동대동다숲아파트 102동 옆 놀이터-1,경남 창원시 의창구 서상동 중동대동다숲아파트649,경상남도 창원시 의창구 팔용로 512 중동대동다숲아파트 (서상동),2007-06-01,주택단지,경상남도 창원시 의창구 팔용로 512 중동대동다숲아파트 (서상동),35.260877,128.6194591
532912,창원중동대동다숲아파트 108동 옆 놀이터2,경남 창원시 의창구 서상동 중동대동다숲아파트649,경상남도 창원시 의창구 팔용로 512 중동대동다숲아파트 (서상동),2007-06-01,주택단지,경상남도 창원시 의창구 팔용로 512 중동대동다숲아파트 (서상동),35.260877,128.6194591
532913,창원중동대동다숲아파트 복리동 앞 놀이터-3,경남 창원시 의창구 서상동 중동대동다숲아파트649,경상남도 창원시 의창구 팔용로 512 중동대동다숲아파트 (서상동),2007-06-01,주택단지,경상남도 창원시 의창구 팔용로 512 중동대동다숲아파트 (서상동),35.260877,128.6194591
515500,창원시립상남어린이집,경남 창원시 성산구 상남동37-1,경상남도 창원시 성산구 마디미로73번길 14 (상남동),2007-07-01,어린이집,경상남도 창원시 성산구 마디미로73번길 14 (상남동),35.2187063,128.682682
515925,88올림픽공원,,경상남도 창원시 성산구 두대로 198 (중앙동),2007-07-09,도시공원,경상남도 창원시 성산구 두대로 198 (중앙동),35.2244054,128.6617456
4971,노블파크놀이터 1공구2번 105동앞,창원시 성산구 반림동 10,경상남도 창원시 성산구 원이대로 449 (반림동 노블파크아파트),2007-10-31,주택단지,경상남도 창원시 성산구 원이대로 449 (반림동 노블파크아파트),35.2366008,128.667466
6170,노블파크놀이터 2공구2번 119동앞,창원시 성산구 반림동 10,경상남도 창원시 성산구 원이대로 449 (반림동 노블파크아파트),2007-10-31,주택단지,경상남도 창원시 성산구 원이대로 449 (반림동 노블파크아파트),35.2366008,128.667466
6171,노블파크놀이터 2공구3번 120동앞,창원시 성산구 반림동 10,경상남도 창원시 성산구 원이대로 449 (반림동 노블파크아파트),2007-10-31,주택단지,경상남도 창원시 성산구 원이대로 449 (반림동 노블파크아파트),35.2366008,128.667466
6828,노블파크놀이터 1공구3번 107동앞,창원시 성산구 반림동 10,경상남도 창원시 성산구 원이대로 449 (반림동 노블파크아파트),2007-10-31,주택단지,경상남도 창원시 성산구 원이대로 449 (반림동 노블파크아파트),35.2366008,128.667466
6829,노블파크놀이터 2공구4번 135동앞,창원시 성산구 반림동 10,경상남도 창원시 성산구 원이대로 449 (반림동 노블파크아파트),2007-10-31,주택단지,경상남도 창원시 성산구 원이대로 449 (반림동 노블파크아파트),35.2366008,128.667466
7148,노블파크놀이터 2공구1번 124동앞,창원시 성산구 반림동 10,경상남도 창원시 성산구 원이대로 449 (반림동 노블파크아파트),2007-10-31,주택단지,경상남도 창원시 성산구 원이대로 449 (반림동 노블파크아파트),35.2366008,128.667466
7400,노블파크놀이터 1공구1번 116동앞,창원시 성산구 반림동 10,경상남도 창원시 성산구 원이대로 449 (반림동 노블파크아파트),2007-10-31,주택단지,경상남도 창원시 성산구 원이대로 449 (반림동 노블파크아파트),35.2366008,128.667466
6166,까치2차아파트 어린이놀이터,창원시 성산구 반지동 24,경상남도 창원시 성산구 창원천로 256 (반지동),2007-11-02,주택단지,경상남도 창원시 성산구 창원천로 256 (반지동),35.2453089,128.6675558
542258,회원동 쉼터 놀이터,,경상남도 창원시 마산회원구 회원서1길 50-2 (회원동 곰빌라),2008-01-01,도시공원,경상남도 창원시 마산회원구 회원서1길 50-2 (회원동 곰빌라),35.2235391,128.5694353
547176,마산중앙초등학교 병설유치원 어린이 놀이시설,,경상남도 창원시 마산회원구 팔용로 280 (구암동)마산중앙초등학교 병설유치원,2008-01-01,유치원,경상남도 창원시 마산회원구 팔용로 280 (구암동)마산중앙초등학교 병설유치원,35.248385,128.602625
502110,교동초등학교 병설유치원 어린이 놀이시설,,경상남도 창원시 마산회원구 무학로 589 (회원동)교동초등학교 병설유치원,2008-01-11,유치원,경상남도 창원시 마산회원구 무학로 589 (회원동)교동초등학교 병설유치원,35.221501,128.562263
515908,경상남도청어린이집,,경상남도 창원시 의창구 상남로 318 (사림동),2008-01-20,어린이집,경상남도 창원시 의창구 상남로 318 (사림동),35.2382394,128.6958524
502914,새싹유치원 어린이 놀이시설,,경상남도 창원시 마산회원구 합성서1길 94 (합성동)새싹유치원,2008-02-15,유치원,경상남도 창원시 마산회원구 합성서1길 94 (합성동)새싹유치원,35.2406419,128.5834871
508240,솔지어린이집 놀이터,,경상남도 창원시 마산회원구 금강로 301 (구암동),2008-04-08,어린이집,경상남도 창원시 마산회원구 금강로 301 (구암동),35.2535766,128.5963225
24479,창원시립봉곡어린이집,경남 창원시 봉곡동 61-3,경상남도 창원시 의창구 창이대로 195 (봉곡동),2008-06-25,어린이집,경상남도 창원시 의창구 창이대로 195 (봉곡동),35.2449771,128.6587155
502847,꽃누리별누리유치원 어린이 놀이시설,,경상남도 창원시 의창구 도계로95번길 6-17 (도계동)꽃누리별누리유치원,2008-07-10,유치원,경상남도 창원시 의창구 도계로95번길 6-17 (도계동)꽃누리별누리유치원,35.2562654,128.6411917
524228,신비하나름유치원 어린이 놀이시설,,경상남도 창원시 성산구 반송로 107 (반림동)신비하나름유치원,2008-08-30,유치원,경상남도 창원시 성산구 반송로 107 (반림동)신비하나름유치원,35.2381028,128.6680324
512691,유한미소안아파트 놀이터,경남 창원시 마산회원구 양덕동49-1,경상남도 창원시 마산회원구 양덕천길 47 (양덕동),2008-09-18,주택단지,경상남도 창원시 마산회원구 양덕천길 47 (양덕동),35.2311024,128.5870014
25215,동성아파트 116동 놀이터,,경상남도 창원시 성산구 창이대로 737 (사파동 사파동성아파트),2008-10-06,주택단지,경상남도 창원시 성산구 창이대로 737 (사파동 사파동성아파트),35.2194857,128.7038987
31683,동성아파트 111동 놀이터,,경상남도 창원시 성산구 창이대로 737 (사파동 사파동성아파트),2008-10-06,주택단지,경상남도 창원시 성산구 창이대로 737 (사파동 사파동성아파트),35.2194857,128.7038987
29357,대동그린파크1놀이시설 101동앞,,경상남도 창원시 성산구 창원천로 292 (반지동 대동아파트),2008-11-17,주택단지,경상남도 창원시 성산구 창원천로 292 (반지동 대동아파트),35.2449389,128.6703923
29358,대동그린파크2놀이시설 111동앞,,경상남도 창원시 성산구 창원천로 292 (반지동 대동아파트),2008-11-17,주택단지,경상남도 창원시 성산구 창원천로 292 (반지동 대동아파트),35.2449389,128.6703923
26465,창원시립석전어린이집,경남 마산시 석전동164-280,경상남도 창원시 마산회원구 석전북11길 6-10 (석전동),2008-11-21,어린이집,경상남도 창원시 마산회원구 석전북11길 6-10 (석전동),35.2325392,128.5702162
28817,창원심산유곡 내 실내놀이터,경남 창원시 팔용동 42-1 4층,경상남도 창원시 의창구 평산로 96 4층 (팔용동),2008-12-04,목욕장업소,경상남도 창원시 의창구 평산로 96 4층 (팔용동),35.2516385,128.6196834
28979,오성아파트 놀이터,,경상남도 창원시 의창구 서상로 27 (동정동),2008-12-05,주택단지,경상남도 창원시 의창구 서상로 27 (동정동),35.2632188,128.6160878
23359,칠성그린106동놀이터,,경상남도 창원시 의창구 동읍 동읍로 196 (칠성그린아파트),2009-01-22,주택단지,경상남도 창원시 의창구 동읍 동읍로 196 (칠성그린아파트),35.2923906,128.67704
28627,칠성그린201동놀이터,,경상남도 창원시 의창구 동읍 동읍로 196 (칠성그린아파트),2009-01-22,주택단지,경상남도 창원시 의창구 동읍 동읍로 196 (칠성그린아파트),35.2923906,128.67704
502676,유목초등학교 병설유치원 어린이 놀이시설,,경상남도 창원시 성산구 반송로29번길 15 (반지동)유목초등학교 병설유치원,2009-02-05,유치원,경상남도 창원시 성산구 반송로29번길 15 (반지동)유목초등학교 병설유치원,35.244493,128.662938
502833,회원초등학교 병설유치원 어린이 놀이시설,,경상남도 창원시 마산회원구 회원남로 51 (회원동)회원초등학교 병설유치원,2009-02-09,유치원,경상남도 창원시 마산회원구 회원남로 51 (회원동)회원초등학교 병설유치원,35.2198369,128.5667147
504551,창원초등학교 병설유치원 어린이 놀이시설,,경상남도 창원시 의창구 읍성로 5-1 (서상동)창원초등학교 병설유치원,2009-02-09,학교,경상남도 창원시 의창구 읍성로 5-1 (서상동)창원초등학교 병설유치원,35.2659426,128.6189787
29318,창원상남초등학교 병설유치원 어린이놀이시설,,경상남도 창원시 성산구 토월로 140 (상남동)창원상남초등학교,2009-02-10,학교,경상남도 창원시 성산구 토월로 140 (상남동)창원상남초등학교,35.221618,128.6893
29694,34호 어린이공원,,경상남도 창원시 마산회원구 회원동14길 54 (회원동),2009-02-10,도시공원,경상남도 창원시 마산회원구 회원동14길 54 (회원동),35.2212621,128.5725483
503526,명서초등학교 어린이놀이시설(병설유치원겸용),,경상남도 창원시 의창구 명서로 21 (명서동)명서초등학교,2009-02-13,학교,경상남도 창원시 의창구 명서로 21 (명서동)명서초등학교,35.2509667,128.6428845
4895,봉덕초등학교 병설유치원 어린이 놀이시설,,경상남도 창원시 마산회원구 봉덕1길 14 (봉암동)봉덕초등학교 병설유치원,2009-02-16,유치원,경상남도 창원시 마산회원구 봉덕1길 14 (봉암동)봉덕초등학교 병설유치원,35.222535,128.594538
30230,창원 내동 월드메르디앙 놀이터,,경상남도 창원시 성산구 삼동로128번길 24 (내동 월드메르디앙웨스턴애비뉴),2009-02-26,주택단지,경상남도 창원시 성산구 삼동로128번길 24 (내동 월드메르디앙웨스턴애비뉴),35.2237622,128.6581948
545132,사화초등학교 병설유치원 어린이 놀이시설,,경상남도 창원시 의창구 반계로80번길 7 (팔용동)사화초등학교 병설유치원,2009-03-24,유치원,경상남도 창원시 의창구 반계로80번길 7 (팔용동)사화초등학교 병설유치원,35.2526193,128.6166293
29060,31호 어린이공원,경남 창원시 마산합포구 산호동22-8,경상남도 창원시 마산합포구 산호북10길 5-1 (산호동),2009-04-06,도시공원,경상남도 창원시 마산합포구 산호북10길 5-1 (산호동),35.2187094,128.5832317
29061,19호 어린이공원,,경상남도 창원시 마산회원구 구암남13길 12 (구암동),2009-04-06,도시공원,경상남도 창원시 마산회원구 구암남13길 12 (구암동),35.2494932,128.598302
29062,22호 어린이공원,,경상남도 창원시 마산회원구 합성서12길 12 (합성동),2009-04-06,도시공원,경상남도 창원시 마산회원구 합성서12길 12 (합성동),35.2396433,128.5806312
29065,32호 어린이공원,,경상남도 창원시 마산합포구 산호서4길 22 (산호동),2009-04-06,도시공원,경상남도 창원시 마산합포구 산호서4길 22 (산호동),35.217837,128.5783289
29066,16호 어린이공원,,경상남도 창원시 마산회원구 구암북2길 88 (구암동),2009-04-06,도시공원,경상남도 창원시 마산회원구 구암북2길 88 (구암동),35.2548967,128.5965932
29071,26호 어린이공원,경남 창원시 마산회원구 양덕1동94-13,경상남도 창원시 마산회원구 양덕북16길 49 (양덕동),2009-04-06,도시공원,경상남도 창원시 마산회원구 양덕북16길 49 (양덕동),35.2349929,128.5844125
29072,36호 어린이공원,,경상남도 창원시 마산회원구 석전북18길 10 (석전동),2009-04-06,도시공원,경상남도 창원시 마산회원구 석전북18길 10 (석전동),35.2311596,128.5671619
31571,18호 어린이공원,,경상남도 창원시 마산회원구 소계천서길 49 (구암동 경남아파트),2009-04-06,도시공원,경상남도 창원시 마산회원구 소계천서길 49 (구암동 경남아파트),35.2569147,128.5974683
33805,팔룡초등학교 어린이놀이시설(병설유치원겸용),,경상남도 창원시 마산회원구 학교단지로 31 (합성동)팔룡초등학교,2009-04-06,학교,경상남도 창원시 마산회원구 학교단지로 31 (합성동)팔룡초등학교,35.242276,128.594025
34344,원풍벽산C단지아파트 301동놀이터,경남 창원시 팔용동 125,경상남도 창원시 의창구 남산로 20 (팔용동),2009-04-20,주택단지,경상남도 창원시 의창구 남산로 20 (팔용동),35.2581372,128.613858
34489,원풍벽산C단지아파트 307동놀이터,경남 창원시 팔용동 125번지,경상남도 창원시 의창구 남산로 20 (팔용동),2009-04-20,주택단지,경상남도 창원시 의창구 남산로 20 (팔용동),35.2581372,128.613858
30818,대동중앙아파트 놀이터,,경상남도 창원시 의창구 반계로 101 (팔용동 대동중앙아파트),2009-05-06,주택단지,경상남도 창원시 의창구 반계로 101 (팔용동 대동중앙아파트),35.2550025,128.6160017
4995,럭키반림아파트 어린이놀이터(14동앞),창원시 성산구 반림동 8,경상남도 창원시 성산구 반송로 105 (반림동 럭키아파트),2009-05-26,주택단지,경상남도 창원시 성산구 반송로 105 (반림동 럭키아파트),35.2388973,128.6683376
12250,21호 어린이공원,,경상남도 창원시 마산회원구 합성동11길 69 (합성동),2009-05-26,도시공원,경상남도 창원시 마산회원구 합성동11길 69 (합성동),35.2418805,128.5883071
33045,창원럭키반림아파트 내 어린이놀이터,,경상남도 창원시 성산구 반송로 105(반림동 럭키반림아파트),2009-05-26,주택단지,경상남도 창원시 성산구 반송로 105(반림동 럭키반림아파트),35.2388973,128.6683376
33331,오즈놀이스쿨어린이집 놀이시설,경남 창원시 북동 3번지,경상남도 창원시 의창구 의안로59번길 22 (북동),2009-05-26,어린이집,경상남도 창원시 의창구 의안로59번길 22 (북동),35.2670705,128.6215492
31277,원창호수 아파트 놀이터,,경상남도 창원시 의창구 동읍 의창대로 858,2009-06-23,주택단지,경상남도 창원시 의창구 동읍 의창대로 858,35.2771458,128.6850335
33764,한우아파트 놀이터(조합매트만 검사),,경상남도 창원시 마산회원구 구암북12길 66 (구암동),2009-06-23,주택단지,경상남도 창원시 마산회원구 구암북12길 66 (구암동),35.2574098,128.5963537
37378,서문마을 무학아파트 놀이터,경남 창원시 서상동 11-5번지 무학아파트,경상남도 창원시 의창구 서상로12번길 83-15 무학서문마을아파트 (서상동),2009-08-19,주택단지,경상남도 창원시 의창구 서상로12번길 83-15 무학서문마을아파트 (서상동),35.2619962,128.622225
37492,용지초등학교 병설유치원 어린이 놀이시설,,경상남도 창원시 성산구 원이대로538번길 24 (중앙동)용지초등학교 병설유치원,2009-08-19,유치원,경상남도 창원시 성산구 원이대로538번길 24 (중앙동)용지초등학교 병설유치원,35.229393,128.672237
502429,북성초등학교 병설유치원 어린이 놀이시설,,경상남도 창원시 마산회원구 석전북1길 3 (석전동)북성초등학교 병설유치원,2009-08-21,유치원,경상남도 창원시 마산회원구 석전북1길 3 (석전동)북성초등학교 병설유치원,35.231743,128.570175
37505,우암초등학교 어린이놀이시설(병설유치원겸용),,경상남도 창원시 의창구 대산면 우암로 35우암초등학교,2009-09-07,학교,경상남도 창원시 의창구 대산면 우암로 35우암초등학교,35.3343938,128.7296415
36333,참좋은어린이집 놀이시설,경남 창원시 동읍 신당리 411-3,경상남도 창원시 의창구 동읍 동읍로 207,2009-09-30,어린이집,경상남도 창원시 의창구 동읍 동읍로 207,35.2933346,128.6752675
36457,토월유치원 어린이 놀이시설,,경상남도 창원시 성산구 비음로4번길 33-11 (사파동)토월유치원,2009-10-01,유치원,경상남도 창원시 성산구 비음로4번길 33-11 (사파동)토월유치원,35.227451,128.699613
37440,남아그린타워 놀이터,,경상남도 창원시 의창구 동정길 7 (동정동 남아그린타워아파트),2009-10-26,주택단지,경상남도 창원시 의창구 동정길 7 (동정동 남아그린타워아파트),35.2622672,128.6125142
31443,유목초등학교 어린이 놀이시설,,경상남도 창원시 성산구 반송로29번길 15 (반지동)유목초등학교,2009-10-29,학교,경상남도 창원시 성산구 반송로29번길 15 (반지동)유목초등학교,35.244493,128.662938
41755,창원동성샛별아파트 놀이터,,경상남도 창원시 성산구 연덕로184번길 5 (내동 동성샛별아파트),2009-11-13,주택단지,경상남도 창원시 성산구 연덕로184번길 5 (내동 동성샛별아파트),35.2189779,128.6672817
543017,봉림휴먼시아2단지 놀이터1,,경상남도 창원시 의창구 대봉로 25 (봉림동 봉림휴먼시아2단지),2009-11-25,주택단지,경상남도 창원시 의창구 대봉로 25 (봉림동 봉림휴먼시아2단지),35.2510779,128.6658798
514814,72호 어린이공원,,경상남도 창원시 마산회원구 양덕서로 30 (양덕동 메트로시티),2009-12-02,도시공원,경상남도 창원시 마산회원구 양덕서로 30 (양덕동 메트로시티),35.2273075,128.5824026
514823,71호 어린이공원,,경상남도 창원시 마산회원구 삼호로 108 (양덕동),2009-12-02,도시공원,경상남도 창원시 마산회원구 삼호로 108 (양덕동),35.2253189,128.581682
40114,마산 메트로시티 아파트 120동 물빛소리마당 놀이터,경남 마산시 양덕2동 84-1,경상남도 창원시 마산회원구 양덕서로 30 (양덕동),2009-12-11,주택단지,경상남도 창원시 마산회원구 양덕서로 30 (양덕동),35.2273075,128.5824026
41390,메트로시티아파트 데크층 106동앞 놀이터1,경남 마산시 양덕동 84-1,경상남도 창원시 마산회원구 양덕서로 30 (양덕동),2009-12-11,주택단지,경상남도 창원시 마산회원구 양덕서로 30 (양덕동),35.2273075,128.5824026
41391,메트로시티아파트 데크층 110동앞 놀이터3,경남 마산시 양덕동 84-1,경상남도 창원시 마산회원구 양덕서로 30 (양덕동),2009-12-11,주택단지,경상남도 창원시 마산회원구 양덕서로 30 (양덕동),35.2273075,128.5824026
41395,메트로시티아파트 데크층 113동앞 놀이터4,경남 마산시 양덕동 84-1,경상남도 창원시 마산회원구 양덕서로 30 (양덕동),2009-12-11,주택단지,경상남도 창원시 마산회원구 양덕서로 30 (양덕동),35.2273075,128.5824026
41914,창원해돋이어린이집 놀이시설,경남 창원시 동읍 용잠리 235-2,경상남도 창원시 의창구 동읍 용잠로41번길 17-11,2009-12-11,어린이집,경상남도 창원시 의창구 동읍 용잠로41번길 17-11,35.2805599,128.6901298
